id,registrationNumber,ownerName,driverName,driverNIC,contactNumber,districtId,provinceId,deviceId,status,lastLat,lastLng,lastSpeed,lastHeading,lastTimestamp,registeredAt,updatedAt
1,UP KK-5092,Asanka Samarawickrama,Thusitha Silva,1993092890783,+94779630220,20,8,054f46d1-a5fa-4dda-8041-1554a6021ca4,active,6.880471,81.207911,35.9,6,2026-05-01T12:12:39.135Z,2026-03-29T12:12:39.129Z,2026-05-01T12:12:39.135Z
2,SP KU-6301,Priyantha Seneviratne,Sampath Bandara,1970745971848,+94776211738,7,3,e8d4d3fd-2ad5-4fa7-a6e5-a0507663953b,inactive,,,,,,2025-03-08T12:12:39.131Z,2025-03-08T12:12:39.131Z
3,SP ZZ-7890,Nuwan Silva,Nimal Senanayake,1978821781380,+94771553862,8,3,39dcdac5-7d1c-40fd-b4a5-3387b1387de3,active,6.038312,80.706685,15,155,2026-05-01T12:12:39.135Z,2025-05-02T12:12:39.131Z,2026-05-01T12:12:39.135Z
4,EP IH-9709,Janaka Dissanayake,Ruwan Seneviratne,1986206585199,+94775339902,13,5,1ed63a31-c39e-4b19-b00f-45442d099e12,active,7.235019,81.673802,13.1,314,2026-05-01T12:12:39.135Z,2026-03-16T12:12:39.131Z,2026-05-01T12:12:39.135Z
5,CP OW-9040,Dilrukshi Samarawickrama,Prasad Abeysekara,1990029382085,+94778159078,6,2,0340bfce-b332-4052-99e5-113d0dbce288,suspended,,,,,,2025-10-04T12:12:39.131Z,2025-10-04T12:12:39.131Z
6,SB TY-1933,Weerasekara Gunawardena,Kamal Wickramasinghe,1980633244454,+94776004494,21,9,17190af3-485e-4800-98d9-25c054bcf2c7,active,6.846257,80.487416,14.2,289,2026-05-01T12:12:39.135Z,2025-04-26T12:12:39.131Z,2026-05-01T12:12:39.135Z
7,NP QM-8431,Kasun Abeysekara,Weerasekara Wickramasinghe,1993239818538,+94774154129,11,4,206de5de-1c94-43fa-904a-b0e21e6b4f5e,active,9.269155,80.462461,8.8,120,2026-05-01T12:12:39.135Z,2025-04-06T12:12:39.131Z,2026-05-01T12:12:39.135Z
8,NP AC-9891,Dinesh Perera,Priyantha Pathirana,1985111630943,+94772870409,10,4,553fedf9-f72a-4039-9d33-cc94f33b9875,inactive,,,,,,2025-04-06T12:12:39.131Z,2025-04-06T12:12:39.131Z
9,NC TO-8674,Thusitha Kumara,Chathura Jayawardena,1979235095802,+94779119895,18,7,1cb26436-5951-4b8d-a60e-1ca00d0734ad,active,8.053286,81.236096,21.2,318,2026-05-01T12:12:39.135Z,2024-11-06T12:12:39.131Z,2026-05-01T12:12:39.135Z
10,WP EJ-6206,Sunil Herath,Thusitha Pathirana,1972872276504,+94779622645,1,1,7890079d-5f89-4937-888e-50cee97bd8b2,active,6.89052,79.95481,28.5,234,2026-05-01T12:12:39.135Z,2024-05-30T12:12:39.131Z,2026-05-01T12:12:39.135Z
11,SP OC-5644,Ajith Liyanage,Janaka Silva,1976366014376,+94773020195,7,3,7b9cf9e6-54a2-4480-abd2-54714b00b4d0,active,6.245452,80.351681,28.3,114,2026-05-01T12:12:39.135Z,2025-12-08T12:12:39.132Z,2026-05-01T12:12:39.135Z
12,WP PJ-3315,Saman Pathirana,Isuru Ranasinghe,1972052112904,+94778795437,25,1,8bfbff28-d54b-4061-ad6f-fd479d6c4fde,active,6.708504,80.23924,15.7,345,2026-05-01T12:12:39.135Z,2026-02-21T12:12:39.132Z,2026-05-01T12:12:39.135Z
13,SP HA-1450,Charith Jayasinghe,Sampath Liyanage,1987288494111,+94773247655,7,3,71f9f7f1-6a3f-464a-b1f8-7c6df55c7925,active,6.119645,80.269996,33.3,301,2026-05-01T12:12:39.135Z,2025-03-25T12:12:39.132Z,2026-05-01T12:12:39.135Z
14,SP LX-3224,Ajith Wickramasinghe,Dinesh Liyanage,1971006357592,+94771602507,9,3,4e4b7dff-4230-44e1-bf9d-2434cbae7214,active,6.177894,81.143134,7.2,15,2026-05-01T12:12:39.135Z,2025-08-08T12:12:39.132Z,2026-05-01T12:12:39.135Z
15,WP UF-4949,Chathura Kumara,Asanka Kumara,1987054517611,+94775316220,24,1,7cdc0542-67ac-41c1-b26f-a4e9b829af03,active,6.798475,79.84716,28.9,29,2026-05-01T12:12:39.135Z,2024-10-04T12:12:39.132Z,2026-05-01T12:12:39.135Z
16,WP NX-5047,Ruwan Bandara,Lahiru Rajapaksa,1969725270973,+94775611425,23,1,15cd152f-a7ce-4408-9420-549c56d8daf7,active,7.255141,79.88597,8.5,11,2026-05-01T12:12:39.135Z,2024-11-29T12:12:39.132Z,2026-05-01T12:12:39.135Z
17,CP AL-6783,Chaminda Liyanage,Weerasekara Pathirana,1970671680058,+94779554718,6,2,1be57417-2ba9-44d7-8f7d-e682a3487c9c,inactive,,,,,,2025-01-16T12:12:39.132Z,2025-01-16T12:12:39.132Z
18,EP LZ-7176,Saman Perera,Priyantha Wijesekara,1996817347118,+94772026013,13,5,5df2a31b-4cb9-4db5-9703-23e78393a847,active,7.120904,81.500779,40.4,27,2026-05-01T12:12:39.135Z,2025-12-01T12:12:39.132Z,2026-05-01T12:12:39.135Z
19,NC BD-1849,Lasantha Jayawardena,Saman Kumara,1996177365008,+94776459941,17,7,d740add4-df2c-48bc-9ece-34f85ba87b7a,inactive,,,,,,2025-11-30T12:12:39.132Z,2025-11-30T12:12:39.132Z
20,NP MN-8321,Dilrukshi Dissanayake,Ranjith Fernando,1985715980830,+94778389357,10,4,241e657c-84d6-4865-97b3-66454189f7f0,suspended,,,,,,2025-01-13T12:12:39.132Z,2025-01-13T12:12:39.132Z
21,SP NL-9216,Chathura Ranasinghe,Kasun Bandara,1996896126733,+94776319315,7,3,db686dcd-bbc8-40d6-987b-ea71f0033ec9,active,6.188182,80.041962,37.1,167,2026-05-01T12:12:39.135Z,2024-06-25T12:12:39.132Z,2026-05-01T12:12:39.135Z
22,UP JP-7484,Thilak Silva,Charith Jayasinghe,1994344434990,+94779838477,19,8,06dc6d05-3159-4831-a6c4-60d55af10769,active,7.109133,81.222206,9.9,322,2026-05-01T12:12:39.135Z,2024-09-17T12:12:39.132Z,2026-05-01T12:12:39.135Z
23,SB YN-1133,Chathura Abeysekara,Sunil Dissanayake,1984438118036,+94776907653,22,9,d9d58bcf-3fbd-433f-860f-1419525bce2a,active,7.261553,80.35626,37.8,123,2026-05-01T12:12:39.135Z,2026-03-05T12:12:39.132Z,2026-05-01T12:12:39.135Z
24,SB BN-9062,Bandara Rajapaksa,Janaka Wijesekara,1977392223431,+94776386338,21,9,37b114be-de1b-4993-8ca8-f30829eb4365,suspended,,,,,,2024-09-22T12:12:39.132Z,2024-09-22T12:12:39.132Z
25,CP PN-4157,Sunil Perera,Tharanga Silva,1976793172805,+94771824386,5,2,8f138e1c-06b4-4b40-b6cf-4cfa8e81c028,active,7.314221,80.53999,21.8,283,2026-05-01T12:12:39.135Z,2024-10-10T12:12:39.132Z,2026-05-01T12:12:39.135Z
26,UP ET-4915,Kamal Seneviratne,Weerasekara Gunawardena,1992503515249,+94773899312,20,8,cc71eb15-d311-4e8f-bf97-c67f2861a682,inactive,,,,,,2026-01-11T12:12:39.132Z,2026-01-11T12:12:39.132Z
27,NW KA-1833,Sampath Fernando,Chaminda Abeysekara,1970649493285,+94772836803,16,6,37b5a779-f217-4930-a457-2ccba3f94ec6,active,8.063458,79.85642,19.5,236,2026-05-01T12:12:39.135Z,2024-07-23T12:12:39.132Z,2026-05-01T12:12:39.135Z
28,CP JB-4377,Saman Bandara,Priyantha Ranasinghe,1986024054572,+94777628335,5,2,ddc802f1-d0ed-42d3-a756-268d18da3201,active,7.522686,80.820433,35.7,157,2026-05-01T12:12:39.135Z,2026-03-28T12:12:39.132Z,2026-05-01T12:12:39.135Z
29,SP JH-3254,Mahesh Wickramasinghe,Prasad Pathirana,1989107240069,+94771129701,7,3,d4e7926e-5f85-422b-ab2d-33cda5bcd245,active,6.107422,80.223796,14.6,108,2026-05-01T12:12:39.135Z,2025-11-14T12:12:39.132Z,2026-05-01T12:12:39.135Z
30,NP MO-9291,Gayan Bandara,Chaminda Herath,1978919778130,+94772823787,10,4,48302ac9-940a-472d-ac9b-b7f7362a1115,active,9.764756,80.183258,16.6,185,2026-05-01T12:12:39.135Z,2025-07-22T12:12:39.132Z,2026-05-01T12:12:39.135Z
31,CP NS-4390,Chathura Jayawardena,Tharanga Samarawickrama,1986951493037,+94772840117,4,2,6084b23f-e473-4837-9ba9-c6cbe7d55bb3,active,7.257684,80.696365,17.3,337,2026-05-01T12:12:39.135Z,2024-08-01T12:12:39.132Z,2026-05-01T12:12:39.135Z
32,EP KN-8250,Ranjith Ranasinghe,Lasantha Abeysekara,1973002065484,+94772917778,13,5,ec475b0c-bac8-4c8f-85cd-a3fff6356c37,active,7.229496,81.771327,29.9,125,2026-05-01T12:12:39.135Z,2025-07-15T12:12:39.132Z,2026-05-01T12:12:39.135Z
33,CP DW-7921,Lasantha Ranasinghe,Asanka Herath,1974615488119,+94773833967,5,2,57243369-5184-4dd7-8db4-0c051a74126a,suspended,,,,,,2025-02-20T12:12:39.132Z,2025-02-20T12:12:39.132Z
34,WP QP-4216,Ranjith Bandara,Saman Senanayake,1987333435250,+94772783337,1,1,e62f5f5b-9868-4071-ab5a-775019322bc9,inactive,,,,,,2025-09-04T12:12:39.132Z,2025-09-04T12:12:39.132Z
35,WP FO-4385,Sachith Wijesekara,Chaminda Senanayake,1971215722937,+94778967532,2,1,21db16ec-f70b-445f-800a-ad5fd2e0eb98,suspended,,,,,,2026-01-10T12:12:39.132Z,2026-01-10T12:12:39.132Z
36,CP QX-5298,Weerasekara Bandara,Asanka Gunawardena,1990566418679,+94774274174,4,2,2b367156-b2e1-426f-8749-c29c3d8f80a2,active,7.3279,80.503908,23.2,84,2026-05-01T12:12:39.135Z,2025-11-06T12:12:39.132Z,2026-05-01T12:12:39.135Z
37,WP EX-7620,Nimal Senanayake,Dinesh Samarawickrama,1970942414165,+94775548229,25,1,993cd777-1e8a-475c-9f35-28cf524c3e0f,active,6.672308,80.050593,15.8,286,2026-05-01T12:12:39.135Z,2024-07-05T12:12:39.132Z,2026-05-01T12:12:39.135Z
38,SB GW-9544,Kasun Liyanage,Charith Perera,1968161586216,+94776571325,21,9,56b3356c-9703-4bfb-afc4-db5743626a31,inactive,,,,,,2025-10-14T12:12:39.132Z,2025-10-14T12:12:39.132Z
39,SP SY-1234,Priyantha Herath,Nimal Wijesekara,1989773347224,+94775937346,8,3,bed85a1f-5454-4b33-a554-fabaefc01fc1,active,6.046258,80.568328,40.3,46,2026-05-01T12:12:39.135Z,2024-08-30T12:12:39.132Z,2026-05-01T12:12:39.135Z
40,CP FN-6010,Priyantha Bandara,Nuwan Wijesekara,1967527462054,+94772906367,4,2,4fc336e3-cafb-469c-8fef-f103b34e9d6f,active,7.240051,80.617483,42.1,71,2026-05-01T12:12:39.135Z,2024-10-03T12:12:39.132Z,2026-05-01T12:12:39.135Z
41,WP BP-9759,Thilak Abeysekara,Prasad Seneviratne,1967124032045,+94773658316,1,1,30e314c5-132c-4c64-8c50-de2296219950,inactive,,,,,,2025-01-05T12:12:39.132Z,2025-01-05T12:12:39.132Z
42,WP MJ-4997,Sunil Abeysekara,Kamal Perera,1981859592672,+94773627872,24,1,485f61d0-32d0-4f0f-bd38-046f4a0b606c,inactive,,,,,,2026-01-21T12:12:39.132Z,2026-01-21T12:12:39.132Z
43,WP YX-8918,Sachith Ranasinghe,Gayan Pathirana,1991071781066,+94779956142,23,1,b4d3c883-8bbb-4df5-a86d-bf1f7f0ed2d6,suspended,,,,,,2024-08-06T12:12:39.132Z,2024-08-06T12:12:39.132Z
44,UP AZ-8760,Dilrukshi Jayasinghe,Sunil Kumara,1972975480620,+94776700920,20,8,75989bf8-7531-497e-95a8-373efda732ee,active,7.008606,81.390462,43.8,139,2026-05-01T12:12:39.135Z,2025-02-07T12:12:39.132Z,2026-05-01T12:12:39.135Z
45,WP HB-3169,Thusitha Fernando,Priyantha Rajapaksa,1980337421628,+94771675992,25,1,76c51f2c-abec-4d06-af33-1522d6bf90e0,active,6.790636,80.233369,22.9,109,2026-05-01T12:12:39.135Z,2025-11-04T12:12:39.132Z,2026-05-01T12:12:39.135Z
46,SP DD-9660,Prasad Pathirana,Thusitha Rajapaksa,1972137829543,+94776706133,7,3,9c930a27-96a2-4d68-80a6-ec5bce7b426b,active,6.248199,80.274982,20.5,0,2026-05-01T12:12:39.135Z,2025-04-05T12:12:39.132Z,2026-05-01T12:12:39.135Z
47,EP XK-8599,Gayan Gunawardena,Charith Pathirana,1997995363510,+94775317650,13,5,9a820b33-e606-4d2b-95a3-5aa8480c4590,active,7.424266,81.97384,13.9,335,2026-05-01T12:12:39.135Z,2026-03-16T12:12:39.132Z,2026-05-01T12:12:39.135Z
48,UP YI-6447,Dilrukshi Wickramasinghe,Ruwan Wijesekara,1998863857256,+94772932774,19,8,8ee4eda8-bfb8-40c5-9a3d-6e4dbff4dad1,active,6.917174,81.045824,25.1,245,2026-05-01T12:12:39.135Z,2026-01-01T12:12:39.132Z,2026-05-01T12:12:39.135Z
49,SB RI-2010,Lahiru Silva,Priyantha Silva,1977195455333,+94771834752,22,9,37a5d525-3833-432d-a466-e112ad1705ee,suspended,,,,,,2024-09-17T12:12:39.132Z,2024-09-17T12:12:39.132Z
50,SP JA-2133,Weerasekara Jayawardena,Lasantha Silva,1991993159695,+94773724533,8,3,99b9c289-4723-4a93-ac51-07f408008c2e,active,5.999494,80.633291,18.8,118,2026-05-01T12:12:39.135Z,2026-03-11T12:12:39.132Z,2026-05-01T12:12:39.135Z
51,CP XJ-8670,Weerasekara Perera,Gayan Herath,1974345035427,+94779523407,4,2,68147789-390e-45e2-8c2d-3aa830140fb3,inactive,,,,,,2025-10-20T12:12:39.132Z,2025-10-20T12:12:39.132Z
52,NW JL-1300,Thilak Senanayake,Lahiru Kumara,1983142871486,+94775320075,15,6,1aaefb05-d4d6-421c-8ae9-840ef5e619e6,active,7.448987,80.335995,27.4,210,2026-05-01T12:12:39.135Z,2025-10-06T12:12:39.132Z,2026-05-01T12:12:39.135Z
53,SP EE-8765,Lasantha Wickramasinghe,Weerasekara Liyanage,1982369953100,+94771824544,9,3,c7aabdfd-5603-4e42-a9c8-c6363d40a688,active,5.992028,80.964349,21.8,307,2026-05-01T12:12:39.135Z,2026-01-25T12:12:39.132Z,2026-05-01T12:12:39.135Z
54,WP LC-1740,Priyantha Dissanayake,Kamal Herath,1981394777741,+94771951595,2,1,a83ec43b-f65a-4a58-948f-6cac4f2f3f5e,inactive,,,,,,2025-09-28T12:12:39.132Z,2025-09-28T12:12:39.132Z
55,NC XH-5215,Gayan Pathirana,Lasantha Wickramasinghe,1971806406051,+94775352025,17,7,619c6a42-4e1f-40d0-91d1-b5def51c6829,suspended,,,,,,2025-09-08T12:12:39.132Z,2025-09-08T12:12:39.132Z
56,EP OP-7424,Kamal Pathirana,Bandara Wickramasinghe,1966069797365,+94778538041,12,5,38357559-5b83-4515-802d-81ad543bab88,active,7.594983,81.714165,11.2,117,2026-05-01T12:12:39.135Z,2024-07-16T12:12:39.132Z,2026-05-01T12:12:39.135Z
57,SB VR-2378,Nuwan Gunawardena,Kasun Jayasinghe,1991674669007,+94779840655,22,9,c651b043-aa75-4df3-8932-21866d82b762,active,7.353914,80.5038,13.1,347,2026-05-01T12:12:39.135Z,2024-10-01T12:12:39.132Z,2026-05-01T12:12:39.135Z
58,WP UG-9587,Charith Rajapaksa,Prasad Dissanayake,1992811063821,+94772977404,1,1,ed7e536b-4dc9-4b02-9892-c5501448ac29,active,6.799007,79.955702,16.9,139,2026-05-01T12:12:39.135Z,2025-04-29T12:12:39.132Z,2026-05-01T12:12:39.135Z
59,CP VZ-8564,Thusitha Perera,Thilak Seneviratne,1995674542443,+94779011579,5,2,9006e9ab-4cbc-4cd2-bec9-fe472ed421a0,suspended,,,,,,2025-04-24T12:12:39.132Z,2025-04-24T12:12:39.132Z
60,EP JO-7371,Saman Liyanage,Kasun Dissanayake,1992195146706,+94777954499,12,5,b47629a6-1217-462e-9091-2bc61f827a69,inactive,,,,,,2024-11-21T12:12:39.132Z,2024-11-21T12:12:39.132Z
61,CP OV-4706,Ruwan Liyanage,Thusitha Jayawardena,1970171009366,+94774332372,6,2,bcf07706-4d95-4b6b-abdd-f066680b4900,active,7.013998,80.87836,5.5,197,2026-05-01T12:12:39.135Z,2025-10-22T12:12:39.132Z,2026-05-01T12:12:39.135Z
62,WP RE-3851,Weerasekara Herath,Saman Seneviratne,1990997423552,+94775807743,3,1,35125a2b-5f2c-47b3-b92a-4431a16e9ca4,active,6.421415,80.129819,26,118,2026-05-01T12:12:39.135Z,2024-11-23T12:12:39.132Z,2026-05-01T12:12:39.135Z
63,UP JP-9984,Weerasekara Jayawardena,Thilak Senanayake,1991624605937,+94778017922,20,8,63e86b52-93cf-46a7-81cf-67d7ff25098e,active,6.798199,81.142532,7,275,2026-05-01T12:12:39.135Z,2025-12-05T12:12:39.132Z,2026-05-01T12:12:39.135Z
64,CP HC-6415,Nimal Fernando,Lahiru Seneviratne,1992833793345,+94772421866,5,2,59f72555-bbc2-4c8a-9d6e-f585cef5d89e,active,7.5661,80.605648,18.9,41,2026-05-01T12:12:39.135Z,2025-08-20T12:12:39.132Z,2026-05-01T12:12:39.135Z
65,SP HY-8930,Kamal Liyanage,Saman Jayasinghe,1985622843834,+94771074339,8,3,59ea0e68-c0b8-491d-86e1-5e2219a3c3fe,active,6.02458,80.560183,36,260,2026-05-01T12:12:39.135Z,2025-02-05T12:12:39.132Z,2026-05-01T12:12:39.135Z
66,SB XN-3114,Prasad Fernando,Priyantha Silva,1991925636838,+94779705318,21,9,6e610049-d237-4e7d-a46c-072d0a986e9c,active,6.646031,80.302957,18.3,56,2026-05-01T12:12:39.135Z,2025-07-04T12:12:39.132Z,2026-05-01T12:12:39.135Z
67,CP PT-6314,Lasantha Fernando,Sachith Kumara,1971952644964,+94772365408,5,2,4c63e23e-f302-4103-bd4e-096c13b010d3,active,7.478854,80.717535,17,132,2026-05-01T12:12:39.135Z,2026-02-13T12:12:39.132Z,2026-05-01T12:12:39.135Z
68,WP FC-3318,Lahiru Gunawardena,Nuwan Abeysekara,1992474924016,+94774081945,1,1,3248c2a7-7d71-4d66-a687-67d2e7795957,inactive,,,,,,2025-05-22T12:12:39.132Z,2025-05-22T12:12:39.132Z
69,NP ZQ-5523,Weerasekara Senanayake,Isuru Gunawardena,1997024503550,+94778214480,10,4,1e233af4-c98e-493c-9f9d-b63e189a81cc,suspended,,,,,,2026-02-23T12:12:39.132Z,2026-02-23T12:12:39.132Z
70,NW LC-2825,Kamal Wickramasinghe,Kamal Dissanayake,1977113109066,+94778921154,16,6,8bb9b108-ee87-4442-bdde-fab0a9b2e5a3,active,7.879162,79.566409,13.9,249,2026-05-01T12:12:39.135Z,2026-02-24T12:12:39.132Z,2026-05-01T12:12:39.135Z
71,NP PP-8697,Ajith Senanayake,Thilak Seneviratne,1973985820458,+94773657589,11,4,8f0a6663-2646-4ce5-b976-4459d2377457,active,9.271157,80.097103,29.5,235,2026-05-01T12:12:39.135Z,2025-03-20T12:12:39.132Z,2026-05-01T12:12:39.135Z
72,CP EF-5970,Mahesh Ranasinghe,Sachith Wijesekara,1993744321563,+94773567416,5,2,ebb98e34-890b-4129-b846-808a8d810959,active,7.435347,80.627396,29.3,333,2026-05-01T12:12:39.135Z,2026-02-03T12:12:39.132Z,2026-05-01T12:12:39.135Z
73,CP AP-9386,Saman Samarawickrama,Isuru Pathirana,1973456400410,+94777816788,6,2,86a1e2d9-5cbf-4498-b0f0-6983e9a68b09,active,6.895444,80.68108,22.6,223,2026-05-01T12:12:39.135Z,2025-03-24T12:12:39.132Z,2026-05-01T12:12:39.135Z
74,WP GZ-5619,Chaminda Jayasinghe,Gayan Jayawardena,1981641765808,+94771830329,23,1,8d7bf92b-2fe2-48c6-bcaf-288c0f6652b5,suspended,,,,,,2025-10-31T12:12:39.132Z,2025-10-31T12:12:39.132Z
75,UP RP-8086,Ranjith Wickramasinghe,Kamal Perera,1983252015141,+94778633487,19,8,3d4b41a4-eb84-44da-9f84-4108f44a92f9,active,7.103328,81.053921,15.2,238,2026-05-01T12:12:39.135Z,2025-05-25T12:12:39.132Z,2026-05-01T12:12:39.135Z
76,WP MS-5198,Kasun Rajapaksa,Prasad Liyanage,1980773861396,+94776475927,3,1,d16ef13e-9101-4677-8fb3-49d43ded8703,active,6.659596,80.149247,21.2,249,2026-05-01T12:12:39.135Z,2026-03-19T12:12:39.132Z,2026-05-01T12:12:39.135Z
77,SB DJ-2986,Asanka Liyanage,Saman Dissanayake,1983125056155,+94775746604,21,9,fbcf0932-624e-4cab-b163-71e70e2b4464,active,6.785448,80.284435,35.6,143,2026-05-01T12:12:39.135Z,2024-07-08T12:12:39.132Z,2026-05-01T12:12:39.135Z
78,WP MY-1562,Nuwan Dissanayake,Dilrukshi Gunawardena,1973696919425,+94772019187,25,1,4a788512-1d13-41c8-8c3b-27224d12278d,active,6.640186,79.98321,26.2,171,2026-05-01T12:12:39.135Z,2025-08-27T12:12:39.132Z,2026-05-01T12:12:39.135Z
79,SB EG-7669,Dilrukshi Gunawardena,Prasad Rajapaksa,1973788826454,+94775992224,22,9,a36dab1c-6af2-4cd8-b807-61bc1045901a,active,7.261708,80.401291,15.3,308,2026-05-01T12:12:39.135Z,2024-06-18T12:12:39.132Z,2026-05-01T12:12:39.135Z
80,WP GG-1490,Dinesh Bandara,Prasad Pathirana,1965195163272,+94772849168,24,1,e4fedf91-413c-4fed-adc9-a9cc94655f91,inactive,,,,,,2025-07-19T12:12:39.132Z,2025-07-19T12:12:39.132Z
81,NC HE-2543,Gayan Gunawardena,Ruwan Seneviratne,1970378224885,+94773833132,17,7,14745ce9-7e4e-4602-a21a-475f029fd129,active,8.129681,80.638922,32.8,258,2026-05-01T12:12:39.135Z,2025-04-28T12:12:39.132Z,2026-05-01T12:12:39.135Z
82,SB XD-8798,Kamal Rajapaksa,Nimal Wijesekara,1983124856588,+94779043011,21,9,113107a6-52d9-466e-8fd3-87ad759ec0eb,suspended,,,,,,2024-05-31T12:12:39.132Z,2024-05-31T12:12:39.132Z
83,CP NT-2336,Sunil Rajapaksa,Tharanga Jayawardena,1982668456728,+94773484268,5,2,257e22ae-5821-44d8-852d-8a8359683ed3,active,7.497438,80.550356,44.2,69,2026-05-01T12:12:39.135Z,2024-05-29T12:12:39.132Z,2026-05-01T12:12:39.135Z
84,SB CD-5078,Sampath Gunawardena,Thilak Silva,1996391623968,+94778109376,22,9,63f26fbe-0c89-49a2-840e-f6e101d7b4a2,suspended,,,,,,2024-05-03T12:12:39.132Z,2024-05-03T12:12:39.132Z
85,NP PY-2152,Sampath Seneviratne,Isuru Liyanage,1990573396426,+94771151681,11,4,9a2d9de1-f591-4d7e-8dd8-b84bdd8203a1,inactive,,,,,,2026-03-29T12:12:39.132Z,2026-03-29T12:12:39.132Z
86,EP PA-1900,Thilak Ranasinghe,Dilrukshi Silva,1995228883764,+94773261940,13,5,c902d05a-4b20-4953-b0c8-038072d1181d,active,7.481958,81.776495,22.9,282,2026-05-01T12:12:39.135Z,2025-12-28T12:12:39.132Z,2026-05-01T12:12:39.135Z
87,WP OI-2355,Ajith Fernando,Saman Seneviratne,1970066056212,+94777220264,1,1,242a327f-3985-4d62-9aa3-89891ab3a3f6,suspended,,,,,,2025-03-07T12:12:39.132Z,2025-03-07T12:12:39.132Z
88,UP XL-1888,Thilak Gunawardena,Sunil Dissanayake,1991486734748,+94779450442,19,8,29162538-5ddc-4f83-95a8-e96244b6a3e3,suspended,,,,,,2026-03-29T12:12:39.132Z,2026-03-29T12:12:39.132Z
89,CP PD-1140,Saman Kumara,Lahiru Wickramasinghe,1992205021720,+94777615548,4,2,c9fa5059-a5cd-40e4-b8e7-24b804294c88,inactive,,,,,,2024-07-24T12:12:39.132Z,2024-07-24T12:12:39.132Z
90,NW BH-2164,Chaminda Samarawickrama,Isuru Perera,1966235026070,+94774826843,15,6,0c3b9b67-8c1d-4773-9388-3870820bdbd1,active,7.415705,80.435476,11.9,176,2026-05-01T12:12:39.135Z,2025-10-01T12:12:39.132Z,2026-05-01T12:12:39.135Z
91,WP AK-8957,Charith Senanayake,Mahesh Wijesekara,1985389334205,+94779311658,24,1,51e8f78e-ddf1-46c4-a54a-7990e2842d59,active,6.661488,79.879451,12.1,198,2026-05-01T12:12:39.135Z,2025-02-02T12:12:39.132Z,2026-05-01T12:12:39.135Z
92,SP OA-2072,Lahiru Wijesekara,Isuru Ranasinghe,1976829626540,+94773384019,9,3,aac5227d-0142-4905-a921-81cd6920cdd2,active,6.285078,81.045243,40.4,261,2026-05-01T12:12:39.135Z,2025-05-28T12:12:39.132Z,2026-05-01T12:12:39.135Z
93,NC HB-5520,Ruwan Fernando,Lasantha Rajapaksa,1985816248782,+94773672096,18,7,77247a8b-16f4-43af-94dd-a0f9b17cd979,inactive,,,,,,2025-06-17T12:12:39.132Z,2025-06-17T12:12:39.132Z
94,WP NE-1389,Tharanga Jayawardena,Nuwan Ranasinghe,1966448662946,+94773843944,23,1,39194dfb-22fc-4d56-a7ed-291512c9879c,active,7.187954,79.621105,20.3,234,2026-05-01T12:12:39.135Z,2025-11-04T12:12:39.132Z,2026-05-01T12:12:39.135Z
95,EP PO-6615,Priyantha Wickramasinghe,Thusitha Liyanage,1974411233617,+94775491390,13,5,4cbb6979-d47b-4755-a814-f3b241937648,active,7.465694,81.486119,39.5,10,2026-05-01T12:12:39.135Z,2025-06-24T12:12:39.132Z,2026-05-01T12:12:39.135Z
96,SP WV-8314,Nimal Herath,Kamal Kumara,1990957544437,+94778533364,9,3,c4d9c89c-871e-46c5-9988-263f20c6a8bb,active,5.984085,81.066949,12,177,2026-05-01T12:12:39.135Z,2025-12-04T12:12:39.132Z,2026-05-01T12:12:39.135Z
97,NC DZ-7913,Thusitha Rajapaksa,Sampath Samarawickrama,1983793904678,+94779255957,18,7,0a270900-2b1f-4d37-bd03-fa4898916bfd,active,7.755972,80.876865,43.4,357,2026-05-01T12:12:39.135Z,2024-10-22T12:12:39.132Z,2026-05-01T12:12:39.135Z
98,NC TU-3406,Charith Samarawickrama,Dinesh Rajapaksa,1994404777252,+94778489872,17,7,e363d9cc-3410-49c0-8297-7468301bd27a,active,8.380335,80.438447,10.1,139,2026-05-01T12:12:39.135Z,2025-02-28T12:12:39.132Z,2026-05-01T12:12:39.135Z
99,NP FW-6118,Thusitha Seneviratne,Janaka Perera,1977303765370,+94778601000,11,4,1ca67ad1-5e06-4bdb-a338-7d810fefd6b4,active,9.296281,80.486645,18.1,137,2026-05-01T12:12:39.135Z,2025-03-29T12:12:39.132Z,2026-05-01T12:12:39.135Z
100,EP RR-7493,Janaka Liyanage,Weerasekara Wijesekara,1987379838333,+94776090135,12,5,ea4194c1-4368-4747-a4b7-c5d595189f2e,suspended,,,,,,2025-09-26T12:12:39.132Z,2025-09-26T12:12:39.132Z
101,NP XV-3298,Ajith Wickramasinghe,Prasad Wijesekara,1981523884133,+94775772627,11,4,747afb1a-e919-4307-b36c-545946915180,inactive,,,,,,2026-03-01T12:12:39.132Z,2026-03-01T12:12:39.132Z
102,UP RW-8676,Dilrukshi Jayawardena,Nimal Pathirana,1993066033247,+94774952478,20,8,52b245ab-1fb0-4a18-a6f2-4e079e0435dd,active,6.727679,81.566522,28.3,191,2026-05-01T12:12:39.135Z,2026-02-04T12:12:39.132Z,2026-05-01T12:12:39.135Z
103,EP VM-6739,Charith Jayasinghe,Ranjith Rajapaksa,1974079471941,+94776999052,13,5,1a653126-bd87-40af-81e0-2b5dfa0137bd,suspended,,,,,,2024-09-04T12:12:39.132Z,2024-09-04T12:12:39.132Z
104,CP DS-1611,Bandara Jayawardena,Asanka Senanayake,1991217439965,+94776900246,5,2,0654ddd2-afeb-4071-865a-4ce98dceea73,active,7.429984,80.55137,39.6,86,2026-05-01T12:12:39.135Z,2025-12-03T12:12:39.132Z,2026-05-01T12:12:39.135Z
105,WP HQ-9915,Charith Dissanayake,Bandara Kumara,1975938276004,+94779491557,2,1,f05eb6ba-1f36-4852-aff8-2a944fb3ac83,active,7.127805,80.086658,40.7,93,2026-05-01T12:12:39.135Z,2024-07-24T12:12:39.132Z,2026-05-01T12:12:39.135Z
106,EP AM-2350,Weerasekara Liyanage,Kamal Seneviratne,1983743916174,+94776461957,14,5,46ee8538-ac59-4973-b42d-ea42de7ab801,active,8.422913,81.329343,7.5,144,2026-05-01T12:12:39.135Z,2025-02-28T12:12:39.132Z,2026-05-01T12:12:39.135Z
107,CP VI-2326,Sachith Perera,Sunil Liyanage,1979682028900,+94778228719,4,2,dd12387d-69f9-4904-8585-c54213ab6e9c,active,7.415506,80.769573,41.7,145,2026-05-01T12:12:39.135Z,2024-10-20T12:12:39.132Z,2026-05-01T12:12:39.135Z
108,UP ML-9431,Charith Wickramasinghe,Lahiru Liyanage,1999383027968,+94773042716,20,8,76a5029b-dbee-40c6-abe6-5b8fd12aceff,active,6.936504,81.294876,39.9,335,2026-05-01T12:12:39.135Z,2024-05-13T12:12:39.132Z,2026-05-01T12:12:39.135Z
109,SB NG-7762,Isuru Kumara,Priyantha Wickramasinghe,1969041381010,+94778963729,22,9,6d43de61-c0db-442b-8988-febb6f16210a,active,7.250243,80.34153,30.4,304,2026-05-01T12:12:39.135Z,2025-10-07T12:12:39.132Z,2026-05-01T12:12:39.135Z
110,SB HP-4405,Tharanga Perera,Gayan Bandara,1965407581284,+94771085297,22,9,7100ca07-ca2d-4ffe-b305-1eaaded44fdf,suspended,,,,,,2025-03-02T12:12:39.132Z,2025-03-02T12:12:39.132Z
111,NW YP-2783,Tharanga Fernando,Sunil Wijesekara,1998631783565,+94774661234,16,6,62a4be64-fb7e-421e-b6e9-7264aa1da936,active,8.090628,80.047064,35.2,20,2026-05-01T12:12:39.135Z,2025-08-19T12:12:39.132Z,2026-05-01T12:12:39.135Z
112,EP NU-4715,Gayan Jayasinghe,Priyantha Wickramasinghe,1976581594860,+94775003256,13,5,986c1e6d-8601-47b4-950b-c4ace73a8405,active,7.193177,81.800173,19.1,79,2026-05-01T12:12:39.135Z,2024-10-29T12:12:39.132Z,2026-05-01T12:12:39.135Z
113,EP VX-1767,Ranjith Wickramasinghe,Charith Herath,1969179806807,+94771024021,14,5,1b6029cb-82ce-4024-932b-eea72e119876,active,8.670405,81.429579,37.9,306,2026-05-01T12:12:39.135Z,2024-06-01T12:12:39.132Z,2026-05-01T12:12:39.135Z
114,CP IX-1328,Tharanga Bandara,Asanka Silva,1986564805787,+94771496720,5,2,a9772526-2641-4eae-8e6e-fb8cb7828c72,suspended,,,,,,2025-07-02T12:12:39.132Z,2025-07-02T12:12:39.132Z
115,WP JE-5778,Charith Seneviratne,Bandara Seneviratne,1968552525168,+94771458384,24,1,c5871994-a2d7-42a1-9b53-f7e6f9d7a5d1,active,6.607333,79.930032,6.1,86,2026-05-01T12:12:39.135Z,2025-12-16T12:12:39.132Z,2026-05-01T12:12:39.135Z
116,WP VH-5400,Ruwan Wijesekara,Ruwan Seneviratne,1972275785853,+94775585117,2,1,3e7a5027-25cd-43b3-a984-d5dbade88dec,inactive,,,,,,2025-11-26T12:12:39.132Z,2025-11-26T12:12:39.132Z
117,NW YC-1560,Sampath Pathirana,Dinesh Kumara,1973014013959,+94777424191,15,6,ced7f14f-3a7d-47d3-9799-6efc3e24f7f7,inactive,,,,,,2025-11-19T12:12:39.132Z,2025-11-19T12:12:39.132Z
118,NW KY-1989,Bandara Perera,Sunil Silva,1978653626239,+94771155246,15,6,aecb5edc-c32f-4ae9-a1d3-b88f51c18b8a,inactive,,,,,,2025-02-19T12:12:39.132Z,2025-02-19T12:12:39.132Z
119,WP AM-8968,Kamal Fernando,Thilak Rajapaksa,1979868812224,+94772590772,1,1,9be46d31-9b13-4b92-913b-f25168074864,active,6.825227,79.925907,12.6,217,2026-05-01T12:12:39.135Z,2025-09-24T12:12:39.132Z,2026-05-01T12:12:39.135Z
120,NC ZV-6370,Ranjith Perera,Prasad Herath,1966325127771,+94778666982,17,7,65e05d30-6a33-4419-83da-25b7d23a5f57,suspended,,,,,,2025-01-21T12:12:39.132Z,2025-01-21T12:12:39.132Z
121,WP ZI-7477,Thusitha Jayawardena,Charith Herath,1966696312998,+94778840545,24,1,b72325b9-c4cf-48c3-bf83-83285418214f,inactive,,,,,,2024-12-07T12:12:39.132Z,2024-12-07T12:12:39.132Z
122,SP VQ-4378,Prasad Rajapaksa,Asanka Kumara,1966386782771,+94775898307,8,3,a8c8bbae-461b-40d0-a3e9-2665dcf79c0a,active,5.818899,80.608921,8.1,67,2026-05-01T12:12:39.135Z,2024-08-02T12:12:39.132Z,2026-05-01T12:12:39.135Z
123,WP RS-2124,Priyantha Liyanage,Dilrukshi Wickramasinghe,1997268288476,+94773015978,24,1,5d7eebdb-3f4c-4353-8d61-28aad98531eb,suspended,,,,,,2026-01-12T12:12:39.132Z,2026-01-12T12:12:39.132Z
124,SB YD-5379,Tharanga Fernando,Weerasekara Abeysekara,1965932675939,+94775869478,22,9,59f21306-388d-4d2d-b457-a8785ea49644,active,7.3577,80.252519,33.2,245,2026-05-01T12:12:39.135Z,2024-12-07T12:12:39.133Z,2026-05-01T12:12:39.135Z
125,WP ER-8795,Dinesh Pathirana,Ajith Dissanayake,1978357531678,+94773615686,3,1,196e3f02-753d-47b9-a0c8-c4a48225d7b0,suspended,,,,,,2025-10-23T12:12:39.133Z,2025-10-23T12:12:39.133Z
126,NW UU-4364,Kamal Fernando,Saman Pathirana,1999769458267,+94776601206,15,6,b404a783-c920-47df-81c9-d871a94503d6,active,7.518002,80.285247,26.8,218,2026-05-01T12:12:39.135Z,2025-04-12T12:12:39.133Z,2026-05-01T12:12:39.135Z
127,CP QC-1980,Thusitha Senanayake,Kamal Silva,1998394076852,+94779241494,6,2,f6412569-5243-43ec-a593-a4a4f00f3233,active,6.962922,80.597444,8.3,286,2026-05-01T12:12:39.135Z,2024-06-19T12:12:39.133Z,2026-05-01T12:12:39.135Z
128,CP KL-1916,Sampath Wickramasinghe,Ranjith Seneviratne,1969254162812,+94777625437,6,2,3deea704-6647-4440-8dcc-85c88b19b632,active,7.055103,80.880576,13.6,86,2026-05-01T12:12:39.135Z,2024-11-06T12:12:39.133Z,2026-05-01T12:12:39.135Z
129,NP QB-1786,Isuru Bandara,Lahiru Bandara,1971853555421,+94775187725,10,4,34db3a51-e561-4f62-8d9c-b145879903a3,suspended,,,,,,2024-08-20T12:12:39.133Z,2024-08-20T12:12:39.133Z
130,CP OZ-2192,Kamal Silva,Chaminda Fernando,1982568998378,+94774055101,6,2,c90f598e-6386-462c-b207-41b67b4ed8a4,active,7.076111,80.734287,24.5,243,2026-05-01T12:12:39.135Z,2025-08-11T12:12:39.133Z,2026-05-01T12:12:39.135Z
131,WP BT-5203,Mahesh Silva,Weerasekara Bandara,1966761010091,+94776519270,1,1,39337cf5-f72f-4c8c-9eae-f596b2626ec0,active,6.815953,79.82071,32.7,237,2026-05-01T12:12:39.135Z,2025-06-04T12:12:39.133Z,2026-05-01T12:12:39.135Z
132,CP TM-8028,Mahesh Pathirana,Kamal Herath,1993124596606,+94772635767,5,2,62be890b-9890-4e57-9787-4fda6b1a8e35,active,7.645098,80.547508,38.5,206,2026-05-01T12:12:39.135Z,2025-03-14T12:12:39.133Z,2026-05-01T12:12:39.135Z
133,NP HF-5777,Weerasekara Silva,Ranjith Jayawardena,1998183172882,+94771871809,11,4,309721bd-faac-43b7-bc66-5e2564d0129d,inactive,,,,,,2025-11-17T12:12:39.133Z,2025-11-17T12:12:39.133Z
134,NC HD-7292,Charith Kumara,Isuru Senanayake,1977324833486,+94776736704,17,7,778d2aef-4641-4a65-b5ab-a29ad18a2b3b,active,8.601585,80.516057,39.1,79,2026-05-01T12:12:39.135Z,2025-10-04T12:12:39.133Z,2026-05-01T12:12:39.135Z
135,SP UC-5950,Isuru Kumara,Kamal Pathirana,1988111702353,+94778607376,9,3,a24703a7-28ec-44fc-b7a4-23f7f0ea2d3e,active,6.237977,80.977672,19.2,107,2026-05-01T12:12:39.135Z,2026-03-23T12:12:39.133Z,2026-05-01T12:12:39.135Z
136,CP HS-1166,Weerasekara Wijesekara,Priyantha Perera,1997997694470,+94777438874,4,2,65179535-a2fe-4b08-a761-ac08b1cb6cb5,inactive,,,,,,2024-12-25T12:12:39.133Z,2024-12-25T12:12:39.133Z
137,SP AE-6112,Kamal Senanayake,Nimal Senanayake,1982081754241,+94773547514,9,3,2a5dd808-8c13-4d8a-bcb6-216dc58e836d,active,6.151429,81.038222,35.7,345,2026-05-01T12:12:39.135Z,2025-03-20T12:12:39.133Z,2026-05-01T12:12:39.135Z
138,WP PD-5696,Saman Wickramasinghe,Asanka Gunawardena,1971651757244,+94774462112,25,1,2cd0e73b-54e1-44a2-8894-fa0b40311fc8,active,6.651142,80.140634,36.7,194,2026-05-01T12:12:39.135Z,2025-07-10T12:12:39.133Z,2026-05-01T12:12:39.135Z
139,WP BF-8981,Ruwan Wijesekara,Isuru Wickramasinghe,1980463070508,+94774591041,25,1,8ff2060b-4351-44e2-85fb-0774de2c41a4,active,6.642215,80.147563,40,243,2026-05-01T12:12:39.135Z,2024-09-04T12:12:39.133Z,2026-05-01T12:12:39.135Z
140,CP QX-8985,Charith Pathirana,Ajith Wickramasinghe,1975595125117,+94774043562,4,2,1eac56b1-3ce4-409a-b412-8cea52f4067b,active,7.39927,80.776532,25.9,172,2026-05-01T12:12:39.135Z,2025-02-07T12:12:39.133Z,2026-05-01T12:12:39.135Z
141,NP DO-1328,Sampath Dissanayake,Janaka Samarawickrama,1968688519028,+94776218995,11,4,706e0b02-5721-48b0-966f-12f8892336fc,active,9.479772,80.377569,35.6,216,2026-05-01T12:12:39.135Z,2024-05-18T12:12:39.133Z,2026-05-01T12:12:39.135Z
142,SP OG-7308,Kasun Silva,Prasad Bandara,1970884011476,+94778229916,7,3,8f7a4762-c88a-4e0d-be1f-04da9ffaa543,active,6.218159,80.200205,17.9,261,2026-05-01T12:12:39.135Z,2024-08-21T12:12:39.133Z,2026-05-01T12:12:39.135Z
143,SP NH-5307,Sachith Samarawickrama,Priyantha Jayawardena,1975922695694,+94778946285,7,3,c7aa98fc-ab1f-4221-a2bd-85e5fca43540,active,6.057066,80.281776,33.4,113,2026-05-01T12:12:39.135Z,2025-09-24T12:12:39.133Z,2026-05-01T12:12:39.135Z
144,EP OB-7134,Sachith Senanayake,Charith Seneviratne,1995886480780,+94778022469,13,5,9f5e3a8d-c149-48d9-a671-c0bed4d96bb2,active,7.514519,81.827456,40.1,41,2026-05-01T12:12:39.135Z,2025-11-20T12:12:39.133Z,2026-05-01T12:12:39.135Z
145,WP IC-5335,Mahesh Samarawickrama,Chaminda Fernando,1988021258460,+94774709740,3,1,5a9e2db1-e100-467c-a5d6-d17c43f71ae1,suspended,,,,,,2025-09-29T12:12:39.133Z,2025-09-29T12:12:39.133Z
146,SB OP-3235,Lasantha Jayasinghe,Dinesh Ranasinghe,1969321984318,+94772330457,22,9,dac8f430-03fc-4dd6-ab98-d7c4b5fe2af0,suspended,,,,,,2025-09-12T12:12:39.133Z,2025-09-12T12:12:39.133Z
147,UP XR-5898,Sampath Bandara,Mahesh Kumara,1972786245865,+94774476641,20,8,fb1d7090-a03f-4f33-979e-d4de06c3d67c,active,6.990705,81.211138,18.6,263,2026-05-01T12:12:39.135Z,2024-07-10T12:12:39.133Z,2026-05-01T12:12:39.135Z
148,NC XV-7399,Lasantha Senanayake,Sachith Herath,1982409630768,+94772518137,18,7,b57fa8b5-dec0-438a-864e-e17ec65379ff,inactive,,,,,,2025-02-19T12:12:39.133Z,2025-02-19T12:12:39.133Z
149,WP GU-9480,Kasun Fernando,Lasantha Jayawardena,1974774737773,+94774666458,23,1,4c131c15-da86-4aa3-abc6-e5cfbb5a702a,active,7.144858,79.927392,35.7,143,2026-05-01T12:12:39.135Z,2025-09-23T12:12:39.133Z,2026-05-01T12:12:39.135Z
150,NW NX-6001,Dilrukshi Bandara,Lasantha Gunawardena,1970596680480,+94776926302,16,6,823b91c5-9df6-48d9-9931-ee13d4254862,active,8.087255,79.951512,25,285,2026-05-01T12:12:39.135Z,2026-02-03T12:12:39.133Z,2026-05-01T12:12:39.135Z
151,NW JJ-8946,Chaminda Bandara,Chathura Silva,1995435883088,+94772712161,16,6,4385f3d1-6b81-44d6-a054-3e6d704997b1,active,8.094526,79.722177,38.3,28,2026-05-01T12:12:39.135Z,2025-04-30T12:12:39.133Z,2026-05-01T12:12:39.135Z
152,NC NF-8072,Bandara Abeysekara,Priyantha Rajapaksa,1999892101710,+94776806224,18,7,0caa0f08-a826-48a5-a70b-6390c1b8e72e,active,8.010111,80.832585,44.9,214,2026-05-01T12:12:39.135Z,2024-12-18T12:12:39.133Z,2026-05-01T12:12:39.135Z
153,WP PT-1005,Tharanga Jayasinghe,Thilak Abeysekara,1969235748973,+94779410400,24,1,2d66f882-e743-4ef2-99d4-f9ae901aacd3,active,6.748052,80.078305,13,353,2026-05-01T12:12:39.135Z,2024-06-17T12:12:39.133Z,2026-05-01T12:12:39.135Z
154,EP RQ-3320,Chathura Senanayake,Sachith Fernando,1980515799203,+94773585497,13,5,f4c0c8e6-1d21-4abe-ab6f-89f63b6b14d3,active,7.387404,81.402126,19.2,108,2026-05-01T12:12:39.135Z,2024-11-22T12:12:39.133Z,2026-05-01T12:12:39.135Z
155,NP WJ-9433,Lasantha Kumara,Sampath Kumara,1973419338721,+94778308636,10,4,657b6a4f-ae1a-4625-b91c-eb34541ebbcd,inactive,,,,,,2025-05-15T12:12:39.133Z,2025-05-15T12:12:39.133Z
156,SB TJ-6378,Priyantha Perera,Thusitha Jayasinghe,1970669185945,+94778183668,21,9,79ab8b6b-13f1-429f-8e3c-9e3f2f2b91d8,active,6.713029,80.32379,38.6,52,2026-05-01T12:12:39.135Z,2025-02-13T12:12:39.133Z,2026-05-01T12:12:39.135Z
157,NP XX-8316,Lasantha Ranasinghe,Dinesh Dissanayake,1976365268564,+94771967669,10,4,014617cc-75f4-49af-b433-4b85fe1752d7,active,9.525598,80.111958,45,357,2026-05-01T12:12:39.135Z,2025-03-02T12:12:39.133Z,2026-05-01T12:12:39.135Z
158,NP BD-8404,Thilak Kumara,Priyantha Ranasinghe,1979873817359,+94779650505,10,4,d3f3275e-1297-46cb-8a21-f4a72df7a1f9,active,9.776379,80.1322,12.5,81,2026-05-01T12:12:39.135Z,2024-08-17T12:12:39.133Z,2026-05-01T12:12:39.135Z
159,UP AZ-5470,Dinesh Dissanayake,Tharanga Ranasinghe,1995728271536,+94776206642,20,8,d787b414-7a8d-4f4e-95c8-123c470dee1a,active,6.902948,81.436119,6.1,64,2026-05-01T12:12:39.135Z,2025-06-14T12:12:39.133Z,2026-05-01T12:12:39.135Z
160,WP QQ-9172,Thusitha Seneviratne,Thilak Seneviratne,1976482456666,+94771152525,23,1,44db7f61-a014-4d51-9619-2aab3bf8d65f,active,7.207628,80.000434,25.8,175,2026-05-01T12:12:39.135Z,2024-11-14T12:12:39.133Z,2026-05-01T12:12:39.135Z
161,EP QN-6400,Thusitha Seneviratne,Bandara Abeysekara,1994403212560,+94777477593,13,5,819aeb76-8b59-408a-b62b-f18f2cf30d4a,active,7.500727,81.637761,27.9,89,2026-05-01T12:12:39.135Z,2025-01-24T12:12:39.133Z,2026-05-01T12:12:39.135Z
162,NC VK-7859,Janaka Seneviratne,Saman Samarawickrama,1985336646102,+94772686912,18,7,da74ed19-f90a-4aef-82f4-61be51ec08fd,suspended,,,,,,2025-07-16T12:12:39.133Z,2025-07-16T12:12:39.133Z
163,WP RD-8397,Mahesh Rajapaksa,Tharanga Ranasinghe,1979437725905,+94775193652,3,1,9ea03456-8d0d-4346-8df9-2372a4e4aa07,active,6.711571,80.079627,5.5,103,2026-05-01T12:12:39.135Z,2024-06-20T12:12:39.133Z,2026-05-01T12:12:39.135Z
164,SP LA-3079,Isuru Kumara,Kamal Liyanage,1971049395858,+94773509319,8,3,b2c1ddb9-c50f-4880-915c-586b4bfd4245,active,5.734926,80.537786,29.1,207,2026-05-01T12:12:39.135Z,2025-11-30T12:12:39.133Z,2026-05-01T12:12:39.135Z
165,SB MG-9256,Lahiru Liyanage,Ajith Rajapaksa,1982024222037,+94773201704,21,9,57e8eab3-206d-4cd3-a4a5-0f3c8b2ad59f,active,6.816372,80.233765,27.2,30,2026-05-01T12:12:39.135Z,2025-02-18T12:12:39.133Z,2026-05-01T12:12:39.135Z
166,UP MS-7045,Charith Abeysekara,Thusitha Silva,1975975515583,+94778356728,20,8,f3682b73-14f6-47e0-a77d-89f1905b9345,active,7.007034,81.073241,42.4,227,2026-05-01T12:12:39.135Z,2024-06-30T12:12:39.133Z,2026-05-01T12:12:39.135Z
167,NC EU-2639,Charith Perera,Asanka Bandara,1973365603934,+94777422816,17,7,dc0dddba-2ac0-44e8-910a-6050265a2358,active,8.233465,80.14257,24.9,21,2026-05-01T12:12:39.135Z,2024-07-26T12:12:39.133Z,2026-05-01T12:12:39.135Z
168,EP HM-1709,Nuwan Fernando,Dinesh Kumara,1997326691411,+94771475937,12,5,3d7133bd-624b-46cb-af71-a306189e1229,active,7.605415,81.711442,21.4,350,2026-05-01T12:12:39.135Z,2024-11-10T12:12:39.133Z,2026-05-01T12:12:39.135Z
169,EP EY-3670,Saman Wijesekara,Prasad Pathirana,1973847477879,+94773300835,13,5,63fe269c-8d77-41d6-b8b7-ce474eb5d2a1,suspended,,,,,,2024-12-18T12:12:39.133Z,2024-12-18T12:12:39.133Z
170,SP IT-8078,Janaka Gunawardena,Sampath Wijesekara,1975588814431,+94776011769,8,3,2897374a-bc82-4fcc-976c-5d6bd5332cff,active,5.724547,80.772832,32.6,173,2026-05-01T12:12:39.135Z,2025-05-28T12:12:39.133Z,2026-05-01T12:12:39.135Z
171,SB OZ-1491,Chaminda Senanayake,Ruwan Jayawardena,1974016684307,+94776822398,21,9,ac247ed8-5c15-490b-93a0-7e17698aab17,suspended,,,,,,2024-06-29T12:12:39.133Z,2024-06-29T12:12:39.133Z
172,SP YP-5758,Lasantha Jayasinghe,Kasun Samarawickrama,1978244741600,+94772726114,9,3,c9a74e44-8661-4bf1-8d31-5fcefa1606f6,active,5.956577,81.237699,21.3,3,2026-05-01T12:12:39.135Z,2026-02-04T12:12:39.133Z,2026-05-01T12:12:39.135Z
173,NP QA-6626,Saman Silva,Sachith Wijesekara,1980398760605,+94776146906,10,4,17d4d089-603e-4a21-b15a-a3db17a296e2,active,9.500957,80.051483,19.8,295,2026-05-01T12:12:39.135Z,2024-11-28T12:12:39.133Z,2026-05-01T12:12:39.135Z
174,WP HS-5292,Thusitha Samarawickrama,Lasantha Wijesekara,1989375929208,+94774014383,24,1,2cb85550-a414-4638-a259-dc2e7859a443,suspended,,,,,,2025-06-26T12:12:39.133Z,2025-06-26T12:12:39.133Z
175,CP KT-6781,Sampath Liyanage,Chaminda Dissanayake,1977674472159,+94778510936,5,2,4c7823db-610d-483f-a237-2033dd518037,inactive,,,,,,2025-03-22T12:12:39.133Z,2025-03-22T12:12:39.133Z
176,WP OI-9790,Saman Liyanage,Ajith Samarawickrama,1973185916532,+94771262357,3,1,2b3b42ed-c628-444d-bafa-ce515e69062b,active,6.551071,79.823033,23.2,333,2026-05-01T12:12:39.135Z,2024-11-30T12:12:39.133Z,2026-05-01T12:12:39.135Z
177,CP VD-2098,Isuru Jayawardena,Charith Rajapaksa,1967022642530,+94777611743,4,2,42e233a9-e1fd-4462-b8cd-13b0d9b9d8eb,suspended,,,,,,2025-07-13T12:12:39.133Z,2025-07-13T12:12:39.133Z
178,WP LO-2804,Dilrukshi Pathirana,Weerasekara Herath,1991473950981,+94775906261,3,1,e0328e7e-9dc9-4177-9944-1193dd22f193,active,6.681698,80.155344,20.7,205,2026-05-01T12:12:39.135Z,2025-04-01T12:12:39.133Z,2026-05-01T12:12:39.135Z
179,SP HB-6680,Gayan Perera,Ranjith Liyanage,1990156559910,+94771305748,8,3,809a236e-3855-4946-96c1-d24f7e3d88ef,active,5.98379,80.58112,36.8,211,2026-05-01T12:12:39.135Z,2025-09-18T12:12:39.133Z,2026-05-01T12:12:39.135Z
180,NP BI-3557,Ruwan Samarawickrama,Kasun Kumara,1987877697111,+94774328953,11,4,f6ab8cfd-1282-4041-a2f4-51206c6b8de8,active,9.195542,80.402877,31.5,130,2026-05-01T12:12:39.135Z,2024-08-08T12:12:39.133Z,2026-05-01T12:12:39.135Z
181,CP DF-2923,Nimal Herath,Chaminda Fernando,1971127931351,+94773130481,4,2,72d15294-620a-4aea-a9d7-e24f89f6b0e5,active,7.367413,80.526707,24.9,28,2026-05-01T12:12:39.135Z,2024-12-23T12:12:39.133Z,2026-05-01T12:12:39.135Z
182,NW NB-8911,Charith Bandara,Asanka Rajapaksa,1987335563361,+94778685162,15,6,9eb544e8-bd7a-4549-808b-8d1ee25a255c,active,7.378772,80.460019,41,241,2026-05-01T12:12:39.135Z,2026-03-04T12:12:39.133Z,2026-05-01T12:12:39.135Z
183,EP QF-3683,Kamal Senanayake,Isuru Bandara,1982337811298,+94778390022,13,5,f2a8d17e-fd48-4fe1-b2d4-4ca18418bc76,active,7.435288,81.54956,28.8,32,2026-05-01T12:12:39.135Z,2024-05-25T12:12:39.133Z,2026-05-01T12:12:39.135Z
184,EP AU-7949,Lasantha Samarawickrama,Asanka Liyanage,1974073595930,+94772194163,12,5,eb9530db-726e-4eab-875d-93105db0db8b,inactive,,,,,,2024-08-18T12:12:39.133Z,2024-08-18T12:12:39.133Z
185,WP AU-4364,Thusitha Herath,Sampath Ranasinghe,1990547101417,+94773359940,1,1,dbfd5c52-66e9-4e39-98ea-954e046b9260,active,6.75769,79.650359,7.8,234,2026-05-01T12:12:39.135Z,2025-11-25T12:12:39.133Z,2026-05-01T12:12:39.135Z
186,EP IW-1977,Chaminda Silva,Mahesh Wijesekara,1990128953284,+94778290852,12,5,60abc591-5326-48de-9f0a-6b4c816763f0,active,7.630227,81.462362,44.4,251,2026-05-01T12:12:39.135Z,2025-02-05T12:12:39.133Z,2026-05-01T12:12:39.135Z
187,WP AG-2400,Sampath Dissanayake,Thilak Jayasinghe,1990259115773,+94776218650,3,1,388d90d2-3004-4cf6-bc40-ba3aacc818a0,inactive,,,,,,2025-08-19T12:12:39.133Z,2025-08-19T12:12:39.133Z
188,EP XZ-7318,Asanka Fernando,Kamal Seneviratne,1968759066818,+94778755141,13,5,3d2c4439-01b5-4134-a7e1-0e7821bb1962,active,7.440136,81.786983,18.7,62,2026-05-01T12:12:39.135Z,2024-08-23T12:12:39.133Z,2026-05-01T12:12:39.135Z
189,EP HB-4482,Tharanga Ranasinghe,Nimal Jayasinghe,1977463383903,+94774009456,14,5,8be6a3f8-e67a-4b93-a19d-c877181411ec,active,8.712049,81.157402,33.8,165,2026-05-01T12:12:39.135Z,2025-03-13T12:12:39.133Z,2026-05-01T12:12:39.135Z
190,SP WA-7063,Gayan Herath,Ruwan Liyanage,1998273306016,+94777467475,9,3,9bc30aab-b9b1-4759-8da1-6fc2a32abb0c,active,6.258569,81.073719,31.6,26,2026-05-01T12:12:39.135Z,2025-12-20T12:12:39.133Z,2026-05-01T12:12:39.135Z
191,NP GU-5715,Nuwan Rajapaksa,Dilrukshi Herath,1975266760005,+94771818931,10,4,66583e01-4502-4205-9df4-38f167816953,inactive,,,,,,2025-03-11T12:12:39.133Z,2025-03-11T12:12:39.133Z
192,WP YR-6887,Dilrukshi Jayasinghe,Prasad Ranasinghe,1965264847865,+94777422322,1,1,fe6719cc-1f3b-414c-9f86-13b0cf837daa,active,6.792767,80.00975,20.9,311,2026-05-01T12:12:39.135Z,2025-01-13T12:12:39.133Z,2026-05-01T12:12:39.135Z
193,NW EN-3672,Thilak Abeysekara,Lahiru Perera,1995586154563,+94775668656,16,6,a629f9c0-f91d-4b1c-8544-455a4935fca2,inactive,,,,,,2026-03-10T12:12:39.133Z,2026-03-10T12:12:39.133Z
194,SP JP-8347,Sunil Dissanayake,Sachith Bandara,1973096431141,+94773321548,9,3,72740ef3-127e-40fc-ab76-930997493c43,active,6.040762,80.885953,17.7,351,2026-05-01T12:12:39.135Z,2025-05-05T12:12:39.133Z,2026-05-01T12:12:39.135Z
195,SB AT-9940,Lasantha Dissanayake,Kamal Wijesekara,1994604390849,+94772073430,21,9,a2ef8426-e31b-4713-a817-84ff05807439,inactive,,,,,,2025-12-31T12:12:39.133Z,2025-12-31T12:12:39.133Z
196,WP IS-9347,Sampath Abeysekara,Nimal Pathirana,1988956345375,+94775237944,2,1,12461c47-8b7c-4987-bf19-4206bb14e76a,suspended,,,,,,2026-01-29T12:12:39.133Z,2026-01-29T12:12:39.133Z
197,UP FA-4337,Ruwan Dissanayake,Ranjith Pathirana,1983712116578,+94771238582,19,8,40561f48-8bee-4bee-9e04-5802919bba58,active,7.010462,81.153662,30.2,63,2026-05-01T12:12:39.135Z,2025-05-17T12:12:39.133Z,2026-05-01T12:12:39.135Z
198,NP DU-7290,Kasun Seneviratne,Ajith Bandara,1999957249065,+94771653049,10,4,69e91749-0945-4ff4-b0ca-b683383fbc0c,inactive,,,,,,2025-05-03T12:12:39.133Z,2025-05-03T12:12:39.133Z
199,WP SP-1395,Chathura Herath,Ajith Jayasinghe,1971848599410,+94776879019,3,1,b0793f65-c3e4-420c-bc73-1ab2efd2eebd,active,6.458392,79.90328,22.5,179,2026-05-01T12:12:39.135Z,2024-05-14T12:12:39.133Z,2026-05-01T12:12:39.135Z
200,CP KP-2794,Kasun Jayasinghe,Ranjith Gunawardena,1988589895358,+94775625554,4,2,fc816093-e109-47c4-832d-66259ff9a18a,active,7.14061,80.849657,12.1,156,2026-05-01T12:12:39.135Z,2024-07-21T12:12:39.133Z,2026-05-01T12:12:39.135Z
