id,registrationNumber,ownerName,driverName,driverNIC,contactNumber,districtId,provinceId,deviceId,status,lastLat,lastLng,lastSpeed,lastHeading,lastTimestamp,registeredAt,updatedAt
"1","WP-TUK-0001","Lasith Pathirana","Chamara Jayasinghe","19712855319","706284327","3","1","DEV-0001","SUSPENDED","","","","","","2024-07-06T08:00:00Z",""
"2","WP-TUK-0002","Dinesh Silva","Nuwan Wickramasinghe","19971278794","757302070","3","1","DEV-0002","ACTIVE","6.783141","79.983345","37","290","2026-04-03T16:00:00.000Z","2024-07-21T08:00:00Z",""
"3","WP-TUK-0003","Kamal Herath","Sunil Seneviratne","19811902744","759126469","3","1","DEV-0003","ACTIVE","6.405087","79.953885","58","238","2026-04-03T16:00:00.000Z","2024-07-21T08:00:00Z",""
"4","WP-TUK-0004","Gayan Dissanayake","Ruwan Pathirana","19752114716","765149694","3","1","DEV-0004","ACTIVE","6.50222","79.937269","44","261","2026-04-03T16:00:00.000Z","2024-03-17T08:00:00Z",""
"5","WP-TUK-0005","Gayan Perera","Asanka Rajapaksa","19712017009","767441006","2","1","DEV-0005","ACTIVE","7.146944","79.839699","22","13","2026-04-03T16:00:00.000Z","2024-03-20T08:00:00Z",""
"6","WP-TUK-0006","Kumari Pathirana","Sandya Bandara","19823445018","743649442","3","1","DEV-0006","ACTIVE","6.63644","80.034859","20","91","2026-04-03T16:00:00.000Z","2024-05-24T08:00:00Z",""
"7","WP-TUK-0007","Chamari Silva","Buddhika Liyanage","19820833840","716573062","2","1","DEV-0007","ACTIVE","7.215069","80.142559","28","155","2026-04-03T16:00:00.000Z","2024-07-03T08:00:00Z",""
"8","WP-TUK-0008","Pradeep Ranasinghe","Gayan Ranasinghe","19893113986","713330028","2","1","DEV-0008","ACTIVE","7.163897","80.172668","33","201","2026-04-03T16:00:00.000Z","2024-08-09T08:00:00Z",""
"9","WP-TUK-0009","Sandya Rajapaksa","Sandya Liyanage","19783362614","765945644","1","1","DEV-0009","ACTIVE","6.995687","80.000254","42","261","2026-04-03T16:00:00.000Z","2024-08-05T08:00:00Z",""
"10","WP-TUK-0010","Ruwan Weerasinghe","Thisara Seneviratne","19950015192","744356498","2","1","DEV-0010","ACTIVE","7.218237","80.143613","1","140","2026-04-03T16:00:00.000Z","2024-07-07T08:00:00Z",""
"11","WP-TUK-0011","Dinesh Liyanage","Thisara Seneviratne","19811217541","747328105","1","1","DEV-0011","INACTIVE","","","","","","2024-04-25T08:00:00Z",""
"12","WP-TUK-0012","Lasith Ranasinghe","Sunil Weerasinghe","19773381276","758283524","2","1","DEV-0012","ACTIVE","7.257959","80.130206","1","229","2026-04-03T16:00:00.000Z","2024-03-11T08:00:00Z",""
"13","WP-TUK-0013","Nadeeka Fernando","Kumari Rajapaksa","19700686697","704389273","1","1","DEV-0013","SUSPENDED","","","","","","2024-05-17T08:00:00Z",""
"14","WP-TUK-0014","Kamal Dissanayake","Dinesh Perera","19831955243","739578566","1","1","DEV-0014","ACTIVE","6.900486","79.783659","48","246","2026-04-03T16:00:00.000Z","2024-02-05T08:00:00Z",""
"15","WP-TUK-0015","Sunil Perera","Dinesh Jayasinghe","19850924134","729162971","2","1","DEV-0015","SUSPENDED","","","","","","2024-03-07T08:00:00Z",""
"16","WP-TUK-0016","Gayan Herath","Dilini Perera","19710727503","741174219","1","1","DEV-0016","ACTIVE","6.915838","79.913433","43","330","2026-04-03T16:00:00.000Z","2024-03-15T08:00:00Z",""
"17","WP-TUK-0017","Dinesh Ranasinghe","Dinesh Dissanayake","19850859537","713200498","2","1","DEV-0017","ACTIVE","7.243796","79.888957","40","67","2026-04-03T16:00:00.000Z","2024-02-03T08:00:00Z",""
"18","WP-TUK-0018","Dinesh Wickramasinghe","Kamal Perera","19802185788","781411176","2","1","DEV-0018","ACTIVE","6.936433","79.928216","6","100","2026-04-03T16:00:00.000Z","2024-05-15T08:00:00Z",""
"19","WP-TUK-0019","Chamari Gunasekara","Ruwan Herath","19962413658","712007989","3","1","DEV-0019","ACTIVE","6.675279","80.113829","30","7","2026-04-03T16:00:00.000Z","2024-02-25T08:00:00Z",""
"20","WP-TUK-0020","Lasith Perera","Thisara Liyanage","19940535408","779098543","3","1","DEV-0020","ACTIVE","6.709446","80.017482","33","257","2026-04-03T16:00:00.000Z","2024-01-10T08:00:00Z",""
"21","WP-TUK-0021","Isuru Fernando","Kumari Ranasinghe","19911559049","785436798","1","1","DEV-0021","INACTIVE","","","","","","2024-02-05T08:00:00Z",""
"22","WP-TUK-0022","Pradeep Pathirana","Buddhika Fernando","19750346638","747500977","1","1","DEV-0022","ACTIVE","6.950013","79.91921","5","183","2026-04-03T16:00:00.000Z","2024-03-20T08:00:00Z",""
"23","WP-TUK-0023","Kumari Bandara","Tharindu Seneviratne","19953223214","755018604","3","1","DEV-0023","INACTIVE","","","","","","2024-07-17T08:00:00Z",""
"24","WP-TUK-0024","Chamari Wickramasinghe","Kamal Ranasinghe","19700253325","702315948","3","1","DEV-0024","ACTIVE","6.3959","80.003143","26","104","2026-04-03T16:00:00.000Z","2024-02-17T08:00:00Z",""
"25","WP-TUK-0025","Isuru Gunasekara","Nadeeka Weerasinghe","19772513972","754885371","2","1","DEV-0025","ACTIVE","7.094405","79.958782","2","283","2026-04-03T16:00:00.000Z","2024-04-03T08:00:00Z",""
"26","WP-TUK-0026","Nadeeka Dissanayake","Dilini Fernando","19700635145","779218363","2","1","DEV-0026","ACTIVE","6.951412","80.143169","16","108","2026-04-03T16:00:00.000Z","2024-02-03T08:00:00Z",""
"27","WP-TUK-0027","Chamara Ranasinghe","Nimal Perera","19742106254","743198268","1","1","DEV-0027","SUSPENDED","","","","","","2024-07-08T08:00:00Z",""
"28","WP-TUK-0028","Tharindu Wickramasinghe","Lasith Pathirana","19861623757","749086790","3","1","DEV-0028","SUSPENDED","","","","","","2024-05-18T08:00:00Z",""
"29","WP-TUK-0029","Asanka Liyanage","Ruwan Ranasinghe","19761009198","715854771","3","1","DEV-0029","SUSPENDED","","","","","","2024-04-09T08:00:00Z",""
"30","WP-TUK-0030","Ruwan Liyanage","Asanka Gunasekara","19723277586","765813140","1","1","DEV-0030","ACTIVE","6.854854","79.711796","26","269","2026-04-03T16:00:00.000Z","2024-01-19T08:00:00Z",""
"31","WP-TUK-0031","Kamal Gunasekara","Tharindu Pathirana","19892912351","722448145","3","1","DEV-0031","ACTIVE","6.488629","79.830535","54","334","2026-04-03T16:00:00.000Z","2024-08-05T08:00:00Z",""
"32","WP-TUK-0032","Kamal Jayasinghe","Chamari Rajapaksa","19733582079","711900282","3","1","DEV-0032","ACTIVE","6.474912","79.817989","3","97","2026-04-03T16:00:00.000Z","2024-06-09T08:00:00Z",""
"33","WP-TUK-0033","Chamari Weerasinghe","Chamara Pathirana","19842118977","721554648","2","1","DEV-0033","SUSPENDED","","","","","","2024-08-24T08:00:00Z",""
"34","WP-TUK-0034","Sunil Fernando","Dinesh Fernando","19961865145","721563950","3","1","DEV-0034","ACTIVE","6.388797","79.765399","4","50","2026-04-03T16:00:00.000Z","2024-07-13T08:00:00Z",""
"35","WP-TUK-0035","Dilini Gunasekara","Pradeep Dissanayake","19930211888","738776244","1","1","DEV-0035","SUSPENDED","","","","","","2024-04-07T08:00:00Z",""
"36","WP-TUK-0036","Kumari Ranasinghe","Ruwan Pathirana","19972477324","773245738","3","1","DEV-0036","SUSPENDED","","","","","","2024-02-02T08:00:00Z",""
"37","WP-TUK-0037","Dinesh Gunasekara","Pradeep Ranasinghe","19933238453","733190078","3","1","DEV-0037","ACTIVE","6.477853","79.967227","53","258","2026-04-03T16:00:00.000Z","2024-04-05T08:00:00Z",""
"38","WP-TUK-0038","Dinesh Bandara","Asanka Jayasinghe","19751551420","778329338","3","1","DEV-0038","ACTIVE","6.576329","80.099685","34","179","2026-04-03T16:00:00.000Z","2024-01-23T08:00:00Z",""
"39","WP-TUK-0039","Lasith Ranasinghe","Sandya Jayasinghe","19731008953","764107912","3","1","DEV-0039","INACTIVE","","","","","","2024-03-10T08:00:00Z",""
"40","WP-TUK-0040","Buddhika Herath","Buddhika Liyanage","19882858087","776792554","3","1","DEV-0040","ACTIVE","6.723783","80.121881","17","212","2026-04-03T16:00:00.000Z","2024-07-07T08:00:00Z",""
"41","CP-TUK-0041","Dinesh Dissanayake","Chamara Liyanage","19741034662","755810076","4","2","DEV-0041","INACTIVE","","","","","","2024-06-22T08:00:00Z",""
"42","CP-TUK-0042","Dilini Pathirana","Chamara Ranasinghe","19980499143","722628103","5","2","DEV-0042","SUSPENDED","","","","","","2024-04-18T08:00:00Z",""
"43","CP-TUK-0043","Gayan Wickramasinghe","Buddhika Ranasinghe","19970676346","716671142","6","2","DEV-0043","SUSPENDED","","","","","","2024-06-18T08:00:00Z",""
"44","CP-TUK-0044","Sunil Rajapaksa","Dinesh Rajapaksa","19710827716","778609992","4","2","DEV-0044","ACTIVE","7.173661","80.498589","51","32","2026-04-03T16:00:00.000Z","2024-04-08T08:00:00Z",""
"45","CP-TUK-0045","Sunil Jayasinghe","Kamal Liyanage","19841795951","712593634","5","2","DEV-0045","SUSPENDED","","","","","","2024-03-21T08:00:00Z",""
"46","CP-TUK-0046","Kumari Perera","Ruwan Dissanayake","19991169532","785967686","6","2","DEV-0046","ACTIVE","6.894792","80.887669","1","185","2026-04-03T16:00:00.000Z","2024-02-02T08:00:00Z",""
"47","CP-TUK-0047","Ruwan Liyanage","Buddhika Weerasinghe","19833035147","718577947","4","2","DEV-0047","ACTIVE","7.118895","80.522483","52","40","2026-04-03T16:00:00.000Z","2024-08-26T08:00:00Z",""
"48","CP-TUK-0048","Nimal Herath","Chamara Silva","19792143998","709362820","5","2","DEV-0048","ACTIVE","7.518876","80.48169","58","131","2026-04-03T16:00:00.000Z","2024-05-09T08:00:00Z",""
"49","CP-TUK-0049","Dinesh Gunasekara","Chamari Ranasinghe","19940131244","785088674","6","2","DEV-0049","INACTIVE","","","","","","2024-04-13T08:00:00Z",""
"50","CP-TUK-0050","Nuwan Fernando","Nimal Weerasinghe","19921426461","752674346","6","2","DEV-0050","INACTIVE","","","","","","2024-03-04T08:00:00Z",""
"51","CP-TUK-0051","Dinesh Silva","Asanka Bandara","19740658080","711668892","4","2","DEV-0051","SUSPENDED","","","","","","2024-04-15T08:00:00Z",""
"52","CP-TUK-0052","Sandya Herath","Sandya Pathirana","19872965786","767057546","6","2","DEV-0052","SUSPENDED","","","","","","2024-01-08T08:00:00Z",""
"53","CP-TUK-0053","Isuru Seneviratne","Tharindu Seneviratne","19981904349","716411821","6","2","DEV-0053","SUSPENDED","","","","","","2024-08-21T08:00:00Z",""
"54","CP-TUK-0054","Sandya Fernando","Buddhika Weerasinghe","19852753639","786249356","5","2","DEV-0054","ACTIVE","7.525216","80.773583","12","184","2026-04-03T16:00:00.000Z","2024-04-14T08:00:00Z",""
"55","CP-TUK-0055","Thisara Jayasinghe","Asanka Fernando","19922905382","765147805","4","2","DEV-0055","ACTIVE","7.151992","80.523886","46","162","2026-04-03T16:00:00.000Z","2024-07-20T08:00:00Z",""
"56","CP-TUK-0056","Chamari Dissanayake","Sandya Dissanayake","19860951849","758962634","5","2","DEV-0056","ACTIVE","7.577795","80.452095","21","191","2026-04-03T16:00:00.000Z","2024-03-09T08:00:00Z",""
"57","CP-TUK-0057","Chamari Pathirana","Chamara Seneviratne","19851624278","786667790","6","2","DEV-0057","ACTIVE","6.835772","80.664382","7","80","2026-04-03T16:00:00.000Z","2024-01-26T08:00:00Z",""
"58","CP-TUK-0058","Gayan Seneviratne","Lasith Weerasinghe","19802435467","756057509","6","2","DEV-0058","INACTIVE","","","","","","2024-07-20T08:00:00Z",""
"59","CP-TUK-0059","Chamari Jayasinghe","Sunil Seneviratne","19823029350","709479106","5","2","DEV-0059","SUSPENDED","","","","","","2024-02-18T08:00:00Z",""
"60","CP-TUK-0060","Lasith Liyanage","Kumari Pathirana","19892454607","768285381","4","2","DEV-0060","INACTIVE","","","","","","2024-01-06T08:00:00Z",""
"61","CP-TUK-0061","Kumari Jayasinghe","Nadeeka Fernando","19992325588","711442822","4","2","DEV-0061","ACTIVE","7.474261","80.579469","5","75","2026-04-03T16:00:00.000Z","2024-04-04T08:00:00Z",""
"62","CP-TUK-0062","Kamal Seneviratne","Dinesh Seneviratne","19802591996","762258825","5","2","DEV-0062","ACTIVE","7.369074","80.609401","32","284","2026-04-03T16:00:00.000Z","2024-02-18T08:00:00Z",""
"63","CP-TUK-0063","Gayan Herath","Gayan Perera","19780928249","713384710","6","2","DEV-0063","INACTIVE","","","","","","2024-02-08T08:00:00Z",""
"64","CP-TUK-0064","Dilini Jayasinghe","Dilini Perera","19993052498","702343401","6","2","DEV-0064","ACTIVE","7.039297","80.841453","13","223","2026-04-03T16:00:00.000Z","2024-05-03T08:00:00Z",""
"65","CP-TUK-0065","Sunil Rajapaksa","Lasith Rajapaksa","19932508504","761377224","6","2","DEV-0065","ACTIVE","7.058646","80.89681","2","13","2026-04-03T16:00:00.000Z","2024-06-14T08:00:00Z",""
"66","SP-TUK-0066","Buddhika Liyanage","Dilini Rajapaksa","19851478190","716453355","8","3","DEV-0066","ACTIVE","5.795644","80.626231","1","61","2026-04-03T16:00:00.000Z","2024-05-06T08:00:00Z",""
"67","SP-TUK-0067","Thisara Dissanayake","Lasith Ranasinghe","19922419451","728482598","8","3","DEV-0067","INACTIVE","","","","","","2024-08-02T08:00:00Z",""
"68","SP-TUK-0068","Lasith Gunasekara","Nadeeka Seneviratne","19980537186","725821720","8","3","DEV-0068","ACTIVE","5.812117","80.412915","2","108","2026-04-03T16:00:00.000Z","2024-03-26T08:00:00Z",""
"69","SP-TUK-0069","Sunil Wickramasinghe","Asanka Fernando","19752562640","779709810","9","3","DEV-0069","ACTIVE","6.139297","81.22024","17","29","2026-04-03T16:00:00.000Z","2024-07-02T08:00:00Z",""
"70","SP-TUK-0070","Nuwan Gunasekara","Pradeep Liyanage","19902408069","756282948","8","3","DEV-0070","INACTIVE","","","","","","2024-07-14T08:00:00Z",""
"71","SP-TUK-0071","Gayan Herath","Gayan Gunasekara","19701131412","755300166","7","3","DEV-0071","ACTIVE","6.098675","80.303849","36","256","2026-04-03T16:00:00.000Z","2024-01-21T08:00:00Z",""
"72","SP-TUK-0072","Nuwan Silva","Sunil Herath","19793491654","775094606","9","3","DEV-0072","ACTIVE","6.343274","81.336973","36","309","2026-04-03T16:00:00.000Z","2024-01-22T08:00:00Z",""
"73","SP-TUK-0073","Nimal Rajapaksa","Sunil Wickramasinghe","19862548105","703858736","7","3","DEV-0073","ACTIVE","5.949313","80.104598","8","39","2026-04-03T16:00:00.000Z","2024-03-26T08:00:00Z",""
"74","SP-TUK-0074","Sunil Liyanage","Dilini Liyanage","19841442407","708043993","8","3","DEV-0074","ACTIVE","6.080839","80.603967","38","28","2026-04-03T16:00:00.000Z","2024-04-16T08:00:00Z",""
"75","SP-TUK-0075","Isuru Liyanage","Tharindu Herath","19723374166","764001918","9","3","DEV-0075","ACTIVE","6.038166","81.181909","19","166","2026-04-03T16:00:00.000Z","2024-04-22T08:00:00Z",""
"76","SP-TUK-0076","Asanka Gunasekara","Isuru Wickramasinghe","19702219044","778295849","8","3","DEV-0076","ACTIVE","5.829837","80.718853","56","97","2026-04-03T16:00:00.000Z","2024-06-02T08:00:00Z",""
"77","SP-TUK-0077","Lasith Ranasinghe","Chamara Herath","19931649003","754129701","9","3","DEV-0077","ACTIVE","5.981568","81.113584","7","204","2026-04-03T16:00:00.000Z","2024-07-26T08:00:00Z",""
"78","SP-TUK-0078","Gayan Gunasekara","Thisara Bandara","19903081739","728518039","8","3","DEV-0078","INACTIVE","","","","","","2024-05-09T08:00:00Z",""
"79","SP-TUK-0079","Buddhika Ranasinghe","Asanka Rajapaksa","19860684559","734892784","9","3","DEV-0079","ACTIVE","6.328898","81.321972","2","142","2026-04-03T16:00:00.000Z","2024-01-10T08:00:00Z",""
"80","SP-TUK-0080","Sandya Perera","Lasith Jayasinghe","19941349004","755821537","7","3","DEV-0080","ACTIVE","6.110947","80.258048","15","298","2026-04-03T16:00:00.000Z","2024-05-10T08:00:00Z",""
"81","SP-TUK-0081","Thisara Bandara","Tharindu Bandara","19791539452","777278815","7","3","DEV-0081","ACTIVE","6.121923","80.406317","34","273","2026-04-03T16:00:00.000Z","2024-01-17T08:00:00Z",""
"82","SP-TUK-0082","Nadeeka Dissanayake","Ruwan Seneviratne","19903573877","781815061","8","3","DEV-0082","INACTIVE","","","","","","2024-02-10T08:00:00Z",""
"83","SP-TUK-0083","Chamari Pathirana","Gayan Seneviratne","19943261868","755195762","9","3","DEV-0083","ACTIVE","6.122023","81.105462","36","254","2026-04-03T16:00:00.000Z","2024-01-03T08:00:00Z",""
"84","SP-TUK-0084","Isuru Weerasinghe","Buddhika Liyanage","19992755723","703293728","7","3","DEV-0084","ACTIVE","5.960745","80.203016","30","150","2026-04-03T16:00:00.000Z","2024-05-18T08:00:00Z",""
"85","SP-TUK-0085","Sandya Wickramasinghe","Buddhika Wickramasinghe","19880399064","732797246","8","3","DEV-0085","ACTIVE","6.059246","80.445183","35","80","2026-04-03T16:00:00.000Z","2024-07-12T08:00:00Z",""
"86","SP-TUK-0086","Isuru Seneviratne","Dilini Herath","19801927124","718643198","9","3","DEV-0086","ACTIVE","5.935257","81.297982","40","48","2026-04-03T16:00:00.000Z","2024-05-07T08:00:00Z",""
"87","SP-TUK-0087","Chamara Dissanayake","Nimal Silva","19942972069","754428158","9","3","DEV-0087","ACTIVE","6.145868","81.085157","30","61","2026-04-03T16:00:00.000Z","2024-06-17T08:00:00Z",""
"88","SP-TUK-0088","Chamari Herath","Chamari Herath","19731999896","737712640","7","3","DEV-0088","ACTIVE","5.92858","80.165621","15","93","2026-04-03T16:00:00.000Z","2024-05-26T08:00:00Z",""
"89","SP-TUK-0089","Isuru Weerasinghe","Kumari Liyanage","19761585685","782386067","7","3","DEV-0089","SUSPENDED","","","","","","2024-04-07T08:00:00Z",""
"90","SP-TUK-0090","Ruwan Rajapaksa","Nimal Jayasinghe","19842219657","715237541","7","3","DEV-0090","ACTIVE","6.175045","80.176306","33","151","2026-04-03T16:00:00.000Z","2024-05-17T08:00:00Z",""
"91","NP-TUK-0091","Isuru Perera","Isuru Ranasinghe","19831276205","747646343","10","4","DEV-0091","ACTIVE","9.668225","80.156597","24","141","2026-04-03T16:00:00.000Z","2024-04-21T08:00:00Z",""
"92","NP-TUK-0092","Chamari Perera","Sunil Ranasinghe","19790522402","733661892","10","4","DEV-0092","ACTIVE","9.519801","80.159031","11","58","2026-04-03T16:00:00.000Z","2024-04-21T08:00:00Z",""
"93","NP-TUK-0093","Ruwan Liyanage","Nadeeka Wickramasinghe","19962847013","703892870","14","4","DEV-0093","ACTIVE","9.273313","80.72107","50","339","2026-04-03T16:00:00.000Z","2024-06-06T08:00:00Z",""
"94","NP-TUK-0094","Pradeep Liyanage","Chamara Silva","19872986510","751942627","12","4","DEV-0094","SUSPENDED","","","","","","2024-05-04T08:00:00Z",""
"95","NP-TUK-0095","Dilini Liyanage","Dilini Liyanage","19972603704","702498500","11","4","DEV-0095","SUSPENDED","","","","","","2024-05-06T08:00:00Z",""
"96","NP-TUK-0096","Dilini Pathirana","Gayan Perera","19802619801","714227323","13","4","DEV-0096","ACTIVE","8.607636","80.69129","29","69","2026-04-03T16:00:00.000Z","2024-02-21T08:00:00Z",""
"97","NP-TUK-0097","Thisara Gunasekara","Kumari Herath","19701366050","745233201","12","4","DEV-0097","ACTIVE","8.959271","80.021911","41","33","2026-04-03T16:00:00.000Z","2024-02-21T08:00:00Z",""
"98","NP-TUK-0098","Dinesh Wickramasinghe","Dinesh Bandara","19992891975","761216244","14","4","DEV-0098","SUSPENDED","","","","","","2024-01-04T08:00:00Z",""
"99","NP-TUK-0099","Dilini Pathirana","Kumari Rajapaksa","19912751648","761492491","14","4","DEV-0099","ACTIVE","9.412579","80.674416","52","83","2026-04-03T16:00:00.000Z","2024-01-24T08:00:00Z",""
"100","NP-TUK-0100","Chamara Silva","Chamara Herath","19952109493","761240187","10","4","DEV-0100","SUSPENDED","","","","","","2024-01-04T08:00:00Z",""
"101","NP-TUK-0101","Dinesh Pathirana","Nadeeka Fernando","19711662312","719832874","11","4","DEV-0101","ACTIVE","9.219047","80.522441","24","126","2026-04-03T16:00:00.000Z","2024-04-03T08:00:00Z",""
"102","NP-TUK-0102","Isuru Gunasekara","Chamara Fernando","19803546271","783948183","13","4","DEV-0102","ACTIVE","8.6226","80.611506","7","231","2026-04-03T16:00:00.000Z","2024-05-15T08:00:00Z",""
"103","NP-TUK-0103","Nuwan Bandara","Kamal Fernando","19711248605","744928484","11","4","DEV-0103","ACTIVE","9.417711","80.342871","2","59","2026-04-03T16:00:00.000Z","2024-06-01T08:00:00Z",""
"104","NP-TUK-0104","Tharindu Seneviratne","Kamal Silva","19761473618","782694918","14","4","DEV-0104","ACTIVE","9.077197","80.637514","52","350","2026-04-03T16:00:00.000Z","2024-03-04T08:00:00Z",""
"105","NP-TUK-0105","Chamari Liyanage","Asanka Dissanayake","19921074199","738411801","14","4","DEV-0105","ACTIVE","9.139163","80.966188","6","310","2026-04-03T16:00:00.000Z","2024-04-07T08:00:00Z",""
"106","NP-TUK-0106","Thisara Perera","Sandya Wickramasinghe","19833125033","704861632","12","4","DEV-0106","ACTIVE","8.968627","79.967587","58","311","2026-04-03T16:00:00.000Z","2024-04-23T08:00:00Z",""
"107","NP-TUK-0107","Tharindu Bandara","Isuru Fernando","19862723148","764131995","11","4","DEV-0107","ACTIVE","9.534547","80.561374","29","355","2026-04-03T16:00:00.000Z","2024-05-07T08:00:00Z",""
"108","NP-TUK-0108","Buddhika Seneviratne","Chamari Weerasinghe","19903204838","739509229","10","4","DEV-0108","ACTIVE","9.54115","79.849046","14","50","2026-04-03T16:00:00.000Z","2024-01-24T08:00:00Z",""
"109","NP-TUK-0109","Kamal Wickramasinghe","Sunil Bandara","19790732514","719270427","12","4","DEV-0109","ACTIVE","8.969092","79.940404","21","301","2026-04-03T16:00:00.000Z","2024-01-08T08:00:00Z",""
"110","NP-TUK-0110","Lasith Wickramasinghe","Pradeep Silva","19710818609","788167784","11","4","DEV-0110","INACTIVE","","","","","","2024-04-04T08:00:00Z",""
"111","EP-TUK-0111","Nuwan Perera","Chamari Bandara","19990206970","717104972","15","5","DEV-0111","ACTIVE","7.086351","81.807694","31","129","2026-04-03T16:00:00.000Z","2024-04-15T08:00:00Z",""
"112","EP-TUK-0112","Gayan Bandara","Nimal Perera","19862376120","763293669","17","5","DEV-0112","SUSPENDED","","","","","","2024-07-10T08:00:00Z",""
"113","EP-TUK-0113","Pradeep Fernando","Sunil Weerasinghe","19740799821","749986759","15","5","DEV-0113","ACTIVE","7.15728","81.503385","7","177","2026-04-03T16:00:00.000Z","2024-05-10T08:00:00Z",""
"114","EP-TUK-0114","Asanka Rajapaksa","Nimal Herath","19781923094","702316939","15","5","DEV-0114","ACTIVE","7.470288","81.915536","10","138","2026-04-03T16:00:00.000Z","2024-04-22T08:00:00Z",""
"115","EP-TUK-0115","Asanka Perera","Chamara Perera","19781488658","736708775","16","5","DEV-0115","SUSPENDED","","","","","","2024-06-27T08:00:00Z",""
"116","EP-TUK-0116","Isuru Gunasekara","Asanka Weerasinghe","19762239449","762894707","17","5","DEV-0116","INACTIVE","","","","","","2024-07-04T08:00:00Z",""
"117","EP-TUK-0117","Nimal Dissanayake","Buddhika Dissanayake","19843039212","721080285","16","5","DEV-0117","SUSPENDED","","","","","","2024-07-08T08:00:00Z",""
"118","EP-TUK-0118","Kumari Ranasinghe","Sandya Wickramasinghe","19922938911","717754031","17","5","DEV-0118","ACTIVE","8.509812","81.263852","57","48","2026-04-03T16:00:00.000Z","2024-06-02T08:00:00Z",""
"119","EP-TUK-0119","Chamara Liyanage","Pradeep Pathirana","19842909573","731963077","17","5","DEV-0119","ACTIVE","8.804252","81.07799","42","137","2026-04-03T16:00:00.000Z","2024-05-18T08:00:00Z",""
"120","EP-TUK-0120","Kumari Jayasinghe","Isuru Bandara","19810449088","746776366","15","5","DEV-0120","ACTIVE","7.527341","81.582989","9","15","2026-04-03T16:00:00.000Z","2024-07-18T08:00:00Z",""
"121","EP-TUK-0121","Tharindu Seneviratne","Chamari Wickramasinghe","19890054615","757873026","16","5","DEV-0121","INACTIVE","","","","","","2024-02-20T08:00:00Z",""
"122","EP-TUK-0122","Kumari Gunasekara","Nuwan Perera","19873229131","786535519","15","5","DEV-0122","SUSPENDED","","","","","","2024-02-12T08:00:00Z",""
"123","EP-TUK-0123","Gayan Gunasekara","Dinesh Silva","19761454920","701145949","17","5","DEV-0123","ACTIVE","8.618786","81.44885","14","142","2026-04-03T16:00:00.000Z","2024-04-24T08:00:00Z",""
"124","EP-TUK-0124","Dinesh Bandara","Asanka Dissanayake","19801207004","746035207","17","5","DEV-0124","INACTIVE","","","","","","2024-04-14T08:00:00Z",""
"125","EP-TUK-0125","Ruwan Herath","Kumari Herath","19831988044","769663314","15","5","DEV-0125","ACTIVE","7.110963","81.768549","33","121","2026-04-03T16:00:00.000Z","2024-08-23T08:00:00Z",""
"126","EP-TUK-0126","Kumari Fernando","Nuwan Seneviratne","19992271707","767292166","15","5","DEV-0126","INACTIVE","","","","","","2024-07-24T08:00:00Z",""
"127","EP-TUK-0127","Dinesh Gunasekara","Nuwan Weerasinghe","19882993200","702859359","17","5","DEV-0127","ACTIVE","8.783705","81.182549","48","138","2026-04-03T16:00:00.000Z","2024-07-16T08:00:00Z",""
"128","EP-TUK-0128","Chamari Rajapaksa","Ruwan Rajapaksa","19711806527","729402711","17","5","DEV-0128","ACTIVE","8.768845","81.179073","7","286","2026-04-03T16:00:00.000Z","2024-04-04T08:00:00Z",""
"129","EP-TUK-0129","Chamari Perera","Dilini Seneviratne","19712449251","721394801","16","5","DEV-0129","ACTIVE","7.635957","81.783585","57","96","2026-04-03T16:00:00.000Z","2024-04-25T08:00:00Z",""
"130","EP-TUK-0130","Chamari Rajapaksa","Dinesh Dissanayake","19723434078","747614991","16","5","DEV-0130","ACTIVE","7.906206","81.498409","45","118","2026-04-03T16:00:00.000Z","2024-08-19T08:00:00Z",""
"131","NWP-TUK-0131","Pradeep Wickramasinghe","Isuru Herath","19911998882","756692309","18","6","DEV-0131","ACTIVE","7.407299","80.427335","57","94","2026-04-03T16:00:00.000Z","2024-07-02T08:00:00Z",""
"132","NWP-TUK-0132","Kumari Seneviratne","Chamari Liyanage","19791371566","728623431","18","6","DEV-0132","INACTIVE","","","","","","2024-07-06T08:00:00Z",""
"133","NWP-TUK-0133","Dinesh Perera","Ruwan Pathirana","19792837421","736087417","19","6","DEV-0133","SUSPENDED","","","","","","2024-01-03T08:00:00Z",""
"134","NWP-TUK-0134","Ruwan Perera","Chamari Herath","19981077110","758831417","19","6","DEV-0134","SUSPENDED","","","","","","2024-07-14T08:00:00Z",""
"135","NWP-TUK-0135","Chamari Fernando","Ruwan Silva","19933622067","788306442","18","6","DEV-0135","INACTIVE","","","","","","2024-03-15T08:00:00Z",""
"136","NWP-TUK-0136","Ruwan Herath","Thisara Herath","19740155857","706233259","19","6","DEV-0136","ACTIVE","8.171244","79.970551","15","215","2026-04-03T16:00:00.000Z","2024-08-27T08:00:00Z",""
"137","NWP-TUK-0137","Buddhika Perera","Nadeeka Dissanayake","19852935665","718944022","19","6","DEV-0137","INACTIVE","","","","","","2024-01-20T08:00:00Z",""
"138","NWP-TUK-0138","Gayan Seneviratne","Nimal Weerasinghe","19883127810","751996950","19","6","DEV-0138","SUSPENDED","","","","","","2024-02-15T08:00:00Z",""
"139","NWP-TUK-0139","Dinesh Jayasinghe","Sandya Perera","19972586944","724873507","18","6","DEV-0139","ACTIVE","7.502702","80.551481","46","102","2026-04-03T16:00:00.000Z","2024-01-06T08:00:00Z",""
"140","NWP-TUK-0140","Nadeeka Gunasekara","Tharindu Ranasinghe","19733126445","713957145","18","6","DEV-0140","ACTIVE","7.314562","80.149336","53","310","2026-04-03T16:00:00.000Z","2024-08-22T08:00:00Z",""
"141","NWP-TUK-0141","Kamal Pathirana","Chamari Bandara","19992256086","728673580","18","6","DEV-0141","ACTIVE","7.534147","80.201382","32","4","2026-04-03T16:00:00.000Z","2024-08-12T08:00:00Z",""
"142","NWP-TUK-0142","Kamal Rajapaksa","Lasith Liyanage","19772801976","771695889","19","6","DEV-0142","ACTIVE","8.216914","79.699617","8","164","2026-04-03T16:00:00.000Z","2024-05-02T08:00:00Z",""
"143","NWP-TUK-0143","Ruwan Seneviratne","Chamari Liyanage","19840579824","789561435","18","6","DEV-0143","ACTIVE","7.502119","80.381015","16","38","2026-04-03T16:00:00.000Z","2024-08-09T08:00:00Z",""
"144","NWP-TUK-0144","Nadeeka Herath","Gayan Wickramasinghe","19752743863","724953069","18","6","DEV-0144","ACTIVE","7.708723","80.193774","5","86","2026-04-03T16:00:00.000Z","2024-03-04T08:00:00Z",""
"145","NWP-TUK-0145","Pradeep Seneviratne","Ruwan Liyanage","19840941877","773873736","19","6","DEV-0145","ACTIVE","8.198274","79.893857","2","228","2026-04-03T16:00:00.000Z","2024-03-10T08:00:00Z",""
"146","NWP-TUK-0146","Isuru Pathirana","Gayan Weerasinghe","19831218334","711538818","18","6","DEV-0146","ACTIVE","7.317385","80.281044","25","48","2026-04-03T16:00:00.000Z","2024-03-08T08:00:00Z",""
"147","NWP-TUK-0147","Chamari Weerasinghe","Nimal Bandara","19980459833","789304045","18","6","DEV-0147","ACTIVE","7.426643","80.575092","49","54","2026-04-03T16:00:00.000Z","2024-03-02T08:00:00Z",""
"148","NWP-TUK-0148","Tharindu Perera","Dinesh Weerasinghe","19821657220","749353971","18","6","DEV-0148","ACTIVE","7.27025","80.30418","57","312","2026-04-03T16:00:00.000Z","2024-05-04T08:00:00Z",""
"149","NWP-TUK-0149","Isuru Dissanayake","Chamari Silva","19850182436","772380027","19","6","DEV-0149","ACTIVE","7.82623","79.605154","55","274","2026-04-03T16:00:00.000Z","2024-05-27T08:00:00Z",""
"150","NWP-TUK-0150","Kamal Herath","Dilini Dissanayake","19723203218","764688293","18","6","DEV-0150","ACTIVE","7.651604","80.483373","44","236","2026-04-03T16:00:00.000Z","2024-08-02T08:00:00Z",""
"151","NCP-TUK-0151","Tharindu Gunasekara","Lasith Pathirana","19742422441","778433641","20","7","DEV-0151","SUSPENDED","","","","","","2024-06-12T08:00:00Z",""
"152","NCP-TUK-0152","Thisara Ranasinghe","Sunil Jayasinghe","19843118280","757240908","20","7","DEV-0152","SUSPENDED","","","","","","2024-02-08T08:00:00Z",""
"153","NCP-TUK-0153","Ruwan Dissanayake","Nimal Dissanayake","19720727701","742272918","20","7","DEV-0153","ACTIVE","8.048158","80.153809","53","353","2026-04-03T16:00:00.000Z","2024-07-07T08:00:00Z",""
"154","NCP-TUK-0154","Lasith Perera","Gayan Ranasinghe","19970922062","713487770","20","7","DEV-0154","ACTIVE","8.411854","80.181616","12","329","2026-04-03T16:00:00.000Z","2024-03-25T08:00:00Z",""
"155","NCP-TUK-0155","Chamari Silva","Isuru Dissanayake","19781369859","776578457","20","7","DEV-0155","SUSPENDED","","","","","","2024-07-11T08:00:00Z",""
"156","NCP-TUK-0156","Chamari Ranasinghe","Nadeeka Seneviratne","19910335811","758163062","21","7","DEV-0156","ACTIVE","8.09196","81.051682","4","16","2026-04-03T16:00:00.000Z","2024-02-09T08:00:00Z",""
"157","NCP-TUK-0157","Lasith Herath","Chamara Weerasinghe","19772437681","731443427","21","7","DEV-0157","ACTIVE","7.921477","80.976686","45","74","2026-04-03T16:00:00.000Z","2024-07-22T08:00:00Z",""
"158","NCP-TUK-0158","Gayan Liyanage","Gayan Liyanage","19740265436","786340676","21","7","DEV-0158","ACTIVE","7.839056","81.221759","46","250","2026-04-03T16:00:00.000Z","2024-07-15T08:00:00Z",""
"159","NCP-TUK-0159","Gayan Weerasinghe","Pradeep Silva","19753175548","705510167","20","7","DEV-0159","ACTIVE","8.576931","80.215935","22","31","2026-04-03T16:00:00.000Z","2024-05-22T08:00:00Z",""
"160","NCP-TUK-0160","Chamara Dissanayake","Buddhika Rajapaksa","19980281028","713507552","21","7","DEV-0160","ACTIVE","8.10129","81.087469","37","144","2026-04-03T16:00:00.000Z","2024-03-13T08:00:00Z",""
"161","NCP-TUK-0161","Lasith Liyanage","Nadeeka Pathirana","19892962065","758880402","20","7","DEV-0161","ACTIVE","8.148253","80.483819","59","232","2026-04-03T16:00:00.000Z","2024-04-17T08:00:00Z",""
"162","NCP-TUK-0162","Gayan Wickramasinghe","Tharindu Silva","19781297967","716227467","20","7","DEV-0162","ACTIVE","8.054547","80.374421","45","333","2026-04-03T16:00:00.000Z","2024-02-14T08:00:00Z",""
"163","NCP-TUK-0163","Nuwan Bandara","Gayan Perera","19882706896","735085022","21","7","DEV-0163","ACTIVE","8.147131","81.208943","22","232","2026-04-03T16:00:00.000Z","2024-07-27T08:00:00Z",""
"164","NCP-TUK-0164","Nadeeka Jayasinghe","Chamari Herath","19990484923","742953299","21","7","DEV-0164","ACTIVE","7.916749","80.885244","20","83","2026-04-03T16:00:00.000Z","2024-07-10T08:00:00Z",""
"165","NCP-TUK-0165","Thisara Ranasinghe","Chamari Liyanage","19802744042","788036264","20","7","DEV-0165","SUSPENDED","","","","","","2024-05-11T08:00:00Z",""
"166","UP-TUK-0166","Ruwan Silva","Isuru Seneviratne","19760301701","748721184","23","8","DEV-0166","ACTIVE","6.924686","81.474533","57","141","2026-04-03T16:00:00.000Z","2024-04-05T08:00:00Z",""
"167","UP-TUK-0167","Thisara Dissanayake","Nadeeka Dissanayake","19812004739","784319976","22","8","DEV-0167","INACTIVE","","","","","","2024-08-17T08:00:00Z",""
"168","UP-TUK-0168","Sunil Jayasinghe","Isuru Pathirana","19930691554","769167927","22","8","DEV-0168","ACTIVE","6.858332","81.083842","8","226","2026-04-03T16:00:00.000Z","2024-06-22T08:00:00Z",""
"169","UP-TUK-0169","Chamari Seneviratne","Nimal Pathirana","19873584615","722935528","23","8","DEV-0169","ACTIVE","6.767746","81.318232","38","136","2026-04-03T16:00:00.000Z","2024-02-07T08:00:00Z",""
"170","UP-TUK-0170","Nuwan Pathirana","Sunil Dissanayake","19973071289","713020226","22","8","DEV-0170","ACTIVE","7.184639","80.996022","17","67","2026-04-03T16:00:00.000Z","2024-02-24T08:00:00Z",""
"171","UP-TUK-0171","Tharindu Jayasinghe","Chamara Fernando","19842431764","768723680","22","8","DEV-0171","ACTIVE","6.767408","80.849536","30","39","2026-04-03T16:00:00.000Z","2024-02-24T08:00:00Z",""
"172","UP-TUK-0172","Nadeeka Seneviratne","Gayan Seneviratne","19981725600","725258769","23","8","DEV-0172","ACTIVE","7.031909","81.228928","18","317","2026-04-03T16:00:00.000Z","2024-05-06T08:00:00Z",""
"173","UP-TUK-0173","Ruwan Pathirana","Chamara Gunasekara","19822492422","788044992","23","8","DEV-0173","ACTIVE","6.582254","81.161813","1","261","2026-04-03T16:00:00.000Z","2024-05-08T08:00:00Z",""
"174","UP-TUK-0174","Kamal Fernando","Nadeeka Liyanage","19712843660","715069601","22","8","DEV-0174","ACTIVE","7.198632","80.929502","16","271","2026-04-03T16:00:00.000Z","2024-07-07T08:00:00Z",""
"175","UP-TUK-0175","Gayan Wickramasinghe","Kumari Silva","19780521782","749415680","22","8","DEV-0175","ACTIVE","7.232257","81.060824","58","248","2026-04-03T16:00:00.000Z","2024-02-25T08:00:00Z",""
"176","UP-TUK-0176","Nadeeka Herath","Nuwan Gunasekara","19983587478","728046503","22","8","DEV-0176","ACTIVE","7.063628","81.042072","33","99","2026-04-03T16:00:00.000Z","2024-04-13T08:00:00Z",""
"177","UP-TUK-0177","Asanka Bandara","Nimal Rajapaksa","19750687526","765984239","22","8","DEV-0177","ACTIVE","7.030549","80.947062","18","249","2026-04-03T16:00:00.000Z","2024-06-08T08:00:00Z",""
"178","UP-TUK-0178","Buddhika Silva","Buddhika Jayasinghe","19922394773","749708860","22","8","DEV-0178","ACTIVE","7.221183","80.823263","5","174","2026-04-03T16:00:00.000Z","2024-02-05T08:00:00Z",""
"179","UP-TUK-0179","Ruwan Weerasinghe","Buddhika Dissanayake","19901354008","718840445","22","8","DEV-0179","SUSPENDED","","","","","","2024-01-03T08:00:00Z",""
"180","UP-TUK-0180","Sunil Dissanayake","Buddhika Herath","19811101720","758539123","22","8","DEV-0180","INACTIVE","","","","","","2024-04-12T08:00:00Z",""
"181","SGP-TUK-0181","Dilini Dissanayake","Buddhika Perera","19772607002","752750582","25","9","DEV-0181","SUSPENDED","","","","","","2024-05-05T08:00:00Z",""
"182","SGP-TUK-0182","Nuwan Fernando","Lasith Dissanayake","19890226829","751735950","24","9","DEV-0182","ACTIVE","6.850645","80.438124","55","69","2026-04-03T16:00:00.000Z","2024-05-23T08:00:00Z",""
"183","SGP-TUK-0183","Pradeep Wickramasinghe","Nadeeka Jayasinghe","19791301393","757569867","25","9","DEV-0183","ACTIVE","7.103052","80.15625","39","140","2026-04-03T16:00:00.000Z","2024-05-22T08:00:00Z",""
"184","SGP-TUK-0184","Ruwan Bandara","Buddhika Jayasinghe","19831507033","708021525","24","9","DEV-0184","ACTIVE","6.81954","80.319765","40","67","2026-04-03T16:00:00.000Z","2024-02-24T08:00:00Z",""
"185","SGP-TUK-0185","Nimal Wickramasinghe","Dinesh Liyanage","19842381989","756662032","24","9","DEV-0185","INACTIVE","","","","","","2024-04-09T08:00:00Z",""
"186","SGP-TUK-0186","Thisara Wickramasinghe","Gayan Liyanage","19941729014","763400238","25","9","DEV-0186","SUSPENDED","","","","","","2024-01-06T08:00:00Z",""
"187","SGP-TUK-0187","Buddhika Rajapaksa","Ruwan Bandara","19983288637","716041487","25","9","DEV-0187","ACTIVE","7.378446","80.301104","51","183","2026-04-03T16:00:00.000Z","2024-02-12T08:00:00Z",""
"188","SGP-TUK-0188","Chamara Wickramasinghe","Chamara Rajapaksa","19891118489","755666041","25","9","DEV-0188","ACTIVE","7.215177","80.302849","5","279","2026-04-03T16:00:00.000Z","2024-06-07T08:00:00Z",""
"189","SGP-TUK-0189","Dinesh Ranasinghe","Pradeep Ranasinghe","19841008225","787959114","25","9","DEV-0189","ACTIVE","7.267881","80.223982","16","17","2026-04-03T16:00:00.000Z","2024-02-21T08:00:00Z",""
"190","SGP-TUK-0190","Isuru Fernando","Nadeeka Silva","19993268964","706652801","25","9","DEV-0190","ACTIVE","7.407082","80.164785","41","126","2026-04-03T16:00:00.000Z","2024-03-12T08:00:00Z",""
"191","SGP-TUK-0191","Thisara Perera","Gayan Dissanayake","19870082340","723318604","25","9","DEV-0191","SUSPENDED","","","","","","2024-05-15T08:00:00Z",""
"192","SGP-TUK-0192","Dilini Jayasinghe","Buddhika Herath","19900078286","731299663","24","9","DEV-0192","SUSPENDED","","","","","","2024-04-23T08:00:00Z",""
"193","SGP-TUK-0193","Dinesh Herath","Buddhika Dissanayake","19740378092","774724781","25","9","DEV-0193","SUSPENDED","","","","","","2024-03-17T08:00:00Z",""
"194","SGP-TUK-0194","Dinesh Ranasinghe","Sunil Pathirana","19862802005","775618984","24","9","DEV-0194","INACTIVE","","","","","","2024-07-27T08:00:00Z",""
"195","SGP-TUK-0195","Nuwan Herath","Nimal Dissanayake","19882994462","736422526","24","9","DEV-0195","INACTIVE","","","","","","2024-02-03T08:00:00Z",""
"196","SGP-TUK-0196","Dinesh Jayasinghe","Sandya Herath","19771744735","726422303","24","9","DEV-0196","INACTIVE","","","","","","2024-01-21T08:00:00Z",""
"197","SGP-TUK-0197","Nuwan Silva","Nadeeka Wickramasinghe","19923495197","704354295","24","9","DEV-0197","INACTIVE","","","","","","2024-02-06T08:00:00Z",""
"198","SGP-TUK-0198","Nuwan Dissanayake","Kamal Seneviratne","19700103230","726218276","25","9","DEV-0198","ACTIVE","7.380181","80.524963","36","339","2026-04-03T16:00:00.000Z","2024-07-10T08:00:00Z",""
"199","SGP-TUK-0199","Dilini Jayasinghe","Nimal Weerasinghe","19861103077","742876028","25","9","DEV-0199","ACTIVE","7.419096","80.168974","0","47","2026-04-03T16:00:00.000Z","2024-01-20T08:00:00Z",""
"200","SGP-TUK-0200","Nadeeka Rajapaksa","Kumari Jayasinghe","19822444095","723487880","24","9","DEV-0200","ACTIVE","6.491632","80.158305","6","154","2026-04-03T16:00:00.000Z","2024-02-06T08:00:00Z",""